[{"id":"2875","company":"KCUK","address":null,"city":"Chevak","state":"AK","country":"UNITED STATES","longitude":"-165.586","latitude":"61.5278","owner":"KASHUNAMIUT SCHOOL DISTRICT","power":"6","frequency":"88.1","website":null,"story":null,"photo":null,"model1":null,"model2":null,"model3":null,"service":"FM","status":null},{"id":"4194","company":"FAA FORT DAVIS","address":null,"city":"Nome","state":"AK","country":"UNITED STATES","longitude":"-165.406","latitude":"64.5011","owner":null,"power":null,"frequency":null,"website":null,"story":null,"photo":null,"model1":null,"model2":null,"model3":null,"service":null,"status":null},{"id":"4195","company":"KICY","address":null,"city":"Nome","state":"AK","country":"UNITED STATES","longitude":"-165.406","latitude":"64.5011","owner":"ARCTIC BROADCASTING ASSOCIATION","power":"50","frequency":"850","website":null,"story":null,"photo":null,"model1":null,"model2":null,"model3":null,"service":"AM","status":null},{"id":"4196","company":"KNOM","address":null,"city":"Nome","state":"AK","country":"UNITED STATES","longitude":"-165.406","latitude":"64.5011","owner":"CATHOLIC BISHOP OF NORTHERN ALASKA","power":"25","frequency":"780","website":null,"story":null,"photo":null,"model1":null,"model2":null,"model3":null,"service":"AM","status":null},{"id":"3644","company":"KINU","address":null,"city":"Kotzebue","state":"AK","country":"UNITED STATES","longitude":"-162.597","latitude":"66.8983","owner":"KOTZEBUE BROADCASTING INC.","power":"0.1","frequency":"89.9","website":null,"story":null,"photo":null,"model1":null,"model2":null,"model3":null,"service":"FM","status":null},{"id":"3645","company":"KOTZ","address":null,"city":"Kotzebue","state":"AK","country":"UNITED STATES","longitude":"-162.597","latitude":"66.8983","owner":"KOTZEBUE BROADCASTING, INC.","power":"10","frequency":"720","website":null,"story":null,"photo":null,"model1":null,"model2":null,"model3":null,"service":"AM","status":null},{"id":"2668","company":"KYUK","address":null,"city":"Bethel","state":"AK","country":"UNITED STATES","longitude":"-161.756","latitude":"60.7922","owner":"BETHEL BROADCASTING, INC.","power":"10","frequency":"640","website":null,"story":null,"photo":null,"model1":null,"model2":null,"model3":null,"service":"AM","status":null},{"id":"3782","company":"KHJC","address":null,"city":"Lihue","state":"HI","country":"UNITED STATES","longitude":"-159.371","latitude":"21.9811","owner":"CALVARY CHAPEL OF TWIN FALLS, INC.","power":"21","frequency":"88.9","website":null,"story":null,"photo":null,"model1":null,"model2":null,"model3":null,"service":"FM","status":null},{"id":"3080","company":"KDLG","address":null,"city":"Dillingham","state":"AK","country":"UNITED STATES","longitude":"-158.458","latitude":"59.0397","owner":"DILLINGHAM CITY SCHOOLS","power":"10","frequency":"670","website":null,"story":null,"photo":null,"model1":null,"model2":null,"model3":null,"service":"AM","status":null},{"id":"3488","company":"BROADCASTING CORPORATION OF AMERICA INC.","address":null,"city":"Honolulu","state":"HI","country":"UNITED STATES","longitude":"-157.858","latitude":"21.3069","owner":null,"power":null,"frequency":null,"website":null,"story":null,"photo":null,"model1":null,"model2":null,"model3":null,"service":null,"status":null},{"id":"3489","company":"Hawaii Public Radio","address":null,"city":"Honolulu","state":"HI","country":"UNITED STATES","longitude":"-157.858","latitude":"21.3069","owner":null,"power":null,"frequency":null,"website":null,"story":null,"photo":null,"model1":null,"model2":null,"model3":null,"service":null,"status":null},{"id":"3490","company":"Hochman Media, Inc","address":null,"city":"Honolulu","state":"HI","country":"UNITED STATES","longitude":"-157.858","latitude":"21.3069","owner":null,"power":null,"frequency":null,"website":null,"story":null,"photo":null,"model1":null,"model2":null,"model3":null,"service":null,"status":null},{"id":"3491","company":"KHBZ","address":null,"city":"Honolulu","state":"HI","country":"UNITED STATES","longitude":"-157.858","latitude":"21.3069","owner":null,"power":null,"frequency":null,"website":null,"story":null,"photo":null,"model1":null,"model2":null,"model3":null,"service":null,"status":null},{"id":"3492","company":"KHCM","address":null,"city":"Honolulu","state":"HI","country":"UNITED STATES","longitude":"-157.858","latitude":"21.3069","owner":"SALEM MEDIA OF HAWAII, INC.","power":"2","frequency":"880","website":null,"story":null,"photo":null,"model1":null,"model2":null,"model3":null,"service":"AM","status":null},{"id":"3493","company":"KHNR","address":null,"city":"Honolulu","state":"HI","country":"UNITED STATES","longitude":"-157.858","latitude":"21.3069","owner":"SALEM MEDIA OF HAWAII, INC.","power":"10","frequency":"690","website":null,"story":null,"photo":null,"model1":null,"model2":null,"model3":null,"service":"AM","status":null},{"id":"3494","company":"KHRA","address":null,"city":"Honolulu","state":"HI","country":"UNITED STATES","longitude":"-157.858","latitude":"21.3069","owner":"RK MEDIA GROUP","power":"5","frequency":"1460","website":null,"story":null,"photo":null,"model1":null,"model2":null,"model3":null,"service":"AM","status":null},{"id":"3495","company":"KHVH","address":null,"city":"Honolulu","state":"HI","country":"UNITED STATES","longitude":"-157.858","latitude":"21.3069","owner":"CAPSTAR TX LLC","power":"10","frequency":"830","website":null,"story":null,"photo":null,"model1":null,"model2":null,"model3":null,"service":"AM","status":null},{"id":"3496","company":"KIPO","address":null,"city":"Honolulu","state":"HI","country":"UNITED STATES","longitude":"-157.858","latitude":"21.3069","owner":"HAWAII PUBLIC RADIO, INC.","power":"38.5","frequency":"89.3","website":null,"story":null,"photo":null,"model1":null,"model2":null,"model3":null,"service":"FM","status":null},{"id":"3497","company":"KKNE","address":null,"city":"Honolulu","state":"HI","country":"UNITED STATES","longitude":"-157.858","latitude":"21.3069","owner":"COX RADIO, INC.","power":"10","frequency":"940","website":null,"story":null,"photo":null,"model1":null,"model2":null,"model3":null,"service":"AM","status":null},{"id":"3498","company":"KKUA","address":null,"city":"Honolulu","state":"HI","country":"UNITED STATES","longitude":"-157.858","latitude":"21.3069","owner":"HAWAII PUBLIC RADIO, INC.","power":"56","frequency":"90.7","website":null,"story":null,"photo":null,"model1":null,"model2":null,"model3":null,"service":"FM","status":null},{"id":"3499","company":"KLHT","address":null,"city":"Honolulu","state":"HI","country":"UNITED STATES","longitude":"-157.858","latitude":"21.3069","owner":"CALVARY CHAPEL OF HONOLULU, INC.","power":"10","frequency":"1040","website":null,"story":null,"photo":null,"model1":null,"model2":null,"model3":null,"service":"AM","status":null},{"id":"3500","company":"KORL-FM","address":null,"city":"Honolulu","state":"HI","country":"UNITED STATES","longitude":"-157.858","latitude":"21.3069","owner":"HOCHMAN HAWAII-THREE, INC.","power":"100","frequency":"101.1","website":null,"story":null,"photo":null,"model1":null,"model2":null,"model3":null,"service":"FM","status":null},{"id":"3501","company":"KPHI","address":null,"city":"Honolulu","state":"HI","country":"UNITED STATES","longitude":"-157.858","latitude":"21.3069","owner":"HOCHMAN - MCCANN HAWAII, INC.","power":"1","frequency":"1130","website":null,"story":null,"photo":null,"model1":null,"model2":null,"model3":null,"service":"AM","status":null},{"id":"3502","company":"KSSK","address":null,"city":"Honolulu","state":"HI","country":"UNITED STATES","longitude":"-157.858","latitude":"21.3069","owner":"CAPSTAR TX LLC","power":"7.5","frequency":"590","website":null,"story":null,"photo":null,"model1":null,"model2":null,"model3":null,"service":"AM","status":null},{"id":"3503","company":"KUMU","address":null,"city":"Honolulu","state":"HI","country":"UNITED STATES","longitude":"-157.858","latitude":"21.3069","owner":null,"power":null,"frequency":null,"website":null,"story":null,"photo":null,"model1":null,"model2":null,"model3":null,"service":null,"status":null},{"id":"3504","company":"KUPA","address":null,"city":"Honolulu","state":"HI","country":"UNITED STATES","longitude":"-157.858","latitude":"21.3069","owner":"BROADCASTING CORPORATION OF AMERICA","power":"6.2","frequency":"1370","website":null,"story":null,"photo":null,"model1":null,"model2":null,"model3":null,"service":"AM","status":null},{"id":"3505","company":"KZOO","address":null,"city":"Honolulu","state":"HI","country":"UNITED STATES","longitude":"-157.858","latitude":"21.3069","owner":"POLYNESIAN BROADCASTING, INC.","power":"1","frequency":"1210","website":null,"story":null,"photo":null,"model1":null,"model2":null,"model3":null,"service":"AM","status":null},{"id":"3317","company":"BIG RIVER PUBLIC BROADCASTING","address":null,"city":"Galena","state":"AK","country":"UNITED STATES","longitude":"-156.928","latitude":"64.7333","owner":null,"power":null,"frequency":null,"website":null,"story":null,"photo":null,"model1":null,"model2":null,"model3":null,"service":null,"status":null},{"id":"3318","company":"KIYU","address":null,"city":"Galena","state":"AK","country":"UNITED STATES","longitude":"-156.928","latitude":"64.7333","owner":"BIG RIVER PUBLIC BROADCASTING CORP.","power":"5","frequency":"910","website":null,"story":null,"photo":null,"model1":null,"model2":null,"model3":null,"service":"AM","status":null},{"id":"2619","company":"KBRW","address":null,"city":"Barrow","state":"AK","country":"UNITED STATES","longitude":"-156.789","latitude":"71.2906","owner":"SILAKKUAGVIK COMMUNICATIONS, INC.","power":"10","frequency":"680","website":null,"story":null,"photo":null,"model1":null,"model2":null,"model3":null,"service":"AM","status":null},{"id":"3631","company":"FAA KING SALMON","address":null,"city":"King Salmon","state":"AK","country":"UNITED STATES","longitude":"-156.661","latitude":"58.6883","owner":null,"power":null,"frequency":null,"website":null,"story":null,"photo":null,"model1":null,"model2":null,"model3":null,"service":null,"status":null},{"id":"3603","company":"KMVI","address":null,"city":"Kahului","state":"HI","country":"UNITED STATES","longitude":"-156.47","latitude":"20.8947","owner":"PACIFIC RADIO GROUP, INC.","power":"5","frequency":"550","website":null,"story":null,"photo":null,"model1":null,"model2":null,"model3":null,"service":"AM","status":null},{"id":"3604","company":"KUAU RADIO","address":null,"city":"Kahului","state":"HI","country":"UNITED STATES","longitude":"-156.47","latitude":"20.8947","owner":null,"power":null,"frequency":null,"website":null,"story":null,"photo":null,"model1":null,"model2":null,"model3":null,"service":null,"status":null},{"id":"3904","company":"KIPM","address":null,"city":"Maui","state":"HI","country":"UNITED STATES","longitude":"-156.332","latitude":"20.7984","owner":null,"power":null,"frequency":null,"website":null,"story":null,"photo":null,"model1":null,"model2":null,"model3":null,"service":null,"status":null},{"id":"5285","company":"Ohana Broadcasting","address":null,"city":null,"state":"HI","country":"UNITED STATES","longitude":"-155.583","latitude":"19.8968","owner":null,"power":null,"frequency":null,"website":null,"story":null,"photo":null,"model1":null,"model2":null,"model3":null,"service":null,"status":null},{"id":"3918","company":"KSKO","address":null,"city":"Mcgrath","state":"AK","country":"UNITED STATES","longitude":"-155.574","latitude":"62.9529","owner":"KUSKOKWIM PUBLIC BROADCASTING CORP.","power":"10","frequency":"870","website":null,"story":null,"photo":null,"model1":null,"model2":null,"model3":null,"service":"AM","status":null},{"id":"3475","company":"KPUA","address":null,"city":"Hilo","state":"HI","country":"UNITED STATES","longitude":"-155.09","latitude":"19.7297","owner":"NEW WEST BROADCASTING CORP.","power":"5","frequency":"670","website":null,"story":null,"photo":null,"model1":null,"model2":null,"model3":null,"service":"AM","status":null},{"id":"3482","company":"KGTL","address":null,"city":"Homer","state":"AK","country":"UNITED STATES","longitude":"-151.548","latitude":"59.6425","owner":"PENINSULA COMMUNICATIONS, INC.","power":"5","frequency":"620","website":null,"story":null,"photo":null,"model1":null,"model2":null,"model3":null,"service":"AM","status":null},{"id":"3483","company":"KXBA","address":null,"city":"Homer","state":"AK","country":"UNITED STATES","longitude":"-151.548","latitude":"59.6425","owner":"PENINSULA COMMUNICATIONS INC","power":"50","frequency":"93.3","website":null,"story":null,"photo":null,"model1":null,"model2":null,"model3":null,"service":"FM","status":null},{"id":"3617","company":"KSLD","address":null,"city":"Kenai","state":"AK","country":"UNITED STATES","longitude":"-151.258","latitude":"60.5544","owner":"KSRM, INC.","power":"10","frequency":"1140","website":null,"story":null,"photo":null,"model1":null,"model2":null,"model3":null,"service":"AM","status":null},{"id":"3618","company":"KSRM","address":null,"city":"Kenai","state":"AK","country":"UNITED STATES","longitude":"-151.258","latitude":"60.5544","owner":"KSRM, INC.","power":"5","frequency":"920","website":null,"story":null,"photo":null,"model1":null,"model2":null,"model3":null,"service":"AM","status":null},{"id":"4833","company":"KCSY","address":null,"city":"Soldotna","state":"AK","country":"UNITED STATES","longitude":"-151.058","latitude":"60.4878","owner":"RESORT RADIO, LLC","power":"0.22","frequency":"106.3","website":null,"story":null,"photo":null,"model1":null,"model2":null,"model3":null,"service":"FM","status":null},{"id":"2502","company":"ALASKA PUBLIC BROADCASTING INC","address":null,"city":"Anchorage","state":"AK","country":"UNITED STATES","longitude":"-149.9","latitude":"61.2181","owner":null,"power":null,"frequency":null,"website":null,"story":null,"photo":null,"model1":null,"model2":null,"model3":null,"service":null,"status":null},{"id":"2503","company":"ANCHORAGE MEDIA GROUP","address":null,"city":"Anchorage","state":"AK","country":"UNITED STATES","longitude":"-149.9","latitude":"61.2181","owner":null,"power":null,"frequency":null,"website":null,"story":null,"photo":null,"model1":null,"model2":null,"model3":null,"service":null,"status":null},{"id":"2504","company":"Anchorage Media Group (Morris)","address":null,"city":"Anchorage","state":"AK","country":"UNITED STATES","longitude":"-149.9","latitude":"61.2181","owner":null,"power":null,"frequency":null,"website":null,"story":null,"photo":null,"model1":null,"model2":null,"model3":null,"service":null,"status":null},{"id":"2505","company":"KATB","address":null,"city":"Anchorage","state":"AK","country":"UNITED STATES","longitude":"-149.9","latitude":"61.2181","owner":"CHRISTIAN BROADCASTING, INC.","power":"4.9","frequency":"89.3","website":null,"story":null,"photo":null,"model1":null,"model2":null,"model3":null,"service":"FM","status":null},{"id":"2506","company":"KAYO","address":null,"city":"Anchorage","state":"AK","country":"UNITED STATES","longitude":"-149.9","latitude":"61.2181","owner":"MCC RADIO, LLC","power":"50","frequency":"100.9","website":null,"story":null,"photo":null,"model1":null,"model2":null,"model3":null,"service":"FM","status":null},{"id":"2507","company":"KCHU","address":null,"city":"Anchorage","state":"AK","country":"UNITED STATES","longitude":"-149.9","latitude":"61.2181","owner":"TERMINAL RADIO, INC.","power":"9.7","frequency":"770","website":null,"story":null,"photo":null,"model1":null,"model2":null,"model3":null,"service":"AM","status":null},{"id":"2508","company":"KHAR","address":null,"city":"Anchorage","state":"AK","country":"UNITED STATES","longitude":"-149.9","latitude":"61.2181","owner":"MCC RADIO, LLC","power":"5","frequency":"590","website":null,"story":null,"photo":null,"model1":null,"model2":null,"model3":null,"service":"AM","status":null},{"id":"2509","company":"KSUD","address":null,"city":"Anchorage","state":"AK","country":"UNITED STATES","longitude":"-149.9","latitude":"61.2181","owner":null,"power":null,"frequency":null,"website":null,"story":null,"photo":null,"model1":null,"model2":null,"model3":null,"service":null,"status":null},{"id":"2510","company":"KTZN","address":null,"city":"Anchorage","state":"AK","country":"UNITED STATES","longitude":"-149.9","latitude":"61.2181","owner":"CAPSTAR TX LLC","power":"5","frequency":"550","website":null,"story":null,"photo":null,"model1":null,"model2":null,"model3":null,"service":"AM","status":null},{"id":"3202","company":"COMM.EQUIP","address":null,"city":"Fairbanks","state":"AK","country":"UNITED STATES","longitude":"-147.716","latitude":"64.8378","owner":null,"power":null,"frequency":null,"website":null,"story":null,"photo":null,"model1":null,"model2":null,"model3":null,"service":null,"status":null},{"id":"3203","company":"KFAR","address":null,"city":"Fairbanks","state":"AK","country":"UNITED STATES","longitude":"-147.716","latitude":"64.8378","owner":"REVITALIZATION PARTNERS, LLC, GENERAL RECEIVER","power":"10","frequency":"660","website":null,"story":null,"photo":null,"model1":null,"model2":null,"model3":null,"service":"AM","status":null},{"id":"3204","company":"KVOK","address":null,"city":"Fairbanks","state":"AK","country":"UNITED STATES","longitude":"-147.716","latitude":"64.8378","owner":"KODIAK ISLAND BROADCASTING COMPANY, INC.","power":"1","frequency":"560","website":null,"story":null,"photo":null,"model1":null,"model2":null,"model3":null,"service":"AM","status":null},{"id":"3205","company":"KWLF","address":null,"city":"Fairbanks","state":"AK","country":"UNITED STATES","longitude":"-147.716","latitude":"64.8378","owner":"REVITALIZATION PARTNERS, LLC, GENERAL RECEIVER","power":"28","frequency":"98.1","website":null,"story":null,"photo":null,"model1":null,"model2":null,"model3":null,"service":"FM","status":null},{"id":"4223","company":"EVANGELISTIC MISSIONARY FELLOW","address":null,"city":"North Pole","state":"AK","country":"UNITED STATES","longitude":"-147.349","latitude":"64.7511","owner":null,"power":null,"frequency":null,"website":null,"story":null,"photo":null,"model1":null,"model2":null,"model3":null,"service":null,"status":null},{"id":"4224","company":"KJNP","address":null,"city":"North Pole","state":"AK","country":"UNITED STATES","longitude":"-147.349","latitude":"64.7511","owner":"EVANGELISTIC ALASKA MISSIONARY FELLOWSHIP, INC.","power":"50","frequency":"1170","website":null,"story":null,"photo":null,"model1":null,"model2":null,"model3":null,"service":"AM","status":null},{"id":"5022","company":"John Antonuk Technical Services","address":null,"city":"Two Rivers","state":"AK","country":"UNITED STATES","longitude":"-147.038","latitude":"64.8722","owner":null,"power":null,"frequency":null,"website":null,"story":null,"photo":null,"model1":null,"model2":null,"model3":null,"service":null,"status":null},{"id":"5034","company":"KVAK","address":null,"city":"Valdez","state":"AK","country":"UNITED STATES","longitude":"-146.348","latitude":"61.1308","owner":"NORTH WAVE COMMUNICATIONS, INC.","power":"1","frequency":"1230","website":null,"story":null,"photo":null,"model1":null,"model2":null,"model3":null,"service":"AM","status":null},{"id":"3048","company":"KIAO","address":null,"city":"Delta Junction","state":"AK","country":"UNITED STATES","longitude":"-145.732","latitude":"64.0378","owner":null,"power":null,"frequency":null,"website":null,"story":null,"photo":null,"model1":null,"model2":null,"model3":null,"service":null,"status":null},{"id":"2993","company":"KLAM","address":null,"city":"Cordova","state":"AK","country":"UNITED STATES","longitude":"-145.701","latitude":"60.5387","owner":"BAYVIEW COMMUNICATIONS, INC.","power":"0.25","frequency":"1450","website":null,"story":null,"photo":null,"model1":null,"model2":null,"model3":null,"service":"AM","status":null},{"id":"3350","company":"KCAM","address":null,"city":"Glennallen","state":"AK","country":"UNITED STATES","longitude":"-145.557","latitude":"62.1097","owner":"NORTHERN LIGHT NETWORK","power":"5","frequency":"790","website":null,"story":null,"photo":null,"model1":null,"model2":null,"model3":null,"service":"AM","status":null},{"id":"3267","company":"KZPA","address":null,"city":"Fort Yukon","state":"AK","country":"UNITED STATES","longitude":"-145.251","latitude":"66.5674","owner":"GWANDAK PUBLIC BROADCASTING, INC.","power":"5","frequency":"900","website":null,"story":null,"photo":null,"model1":null,"model2":null,"model3":null,"service":"AM","status":null},{"id":"920","company":"CFWH","address":null,"city":"Whitehorse","state":"YT","country":"CANADA","longitude":"-135.05","latitude":"60.7167","owner":null,"power":"5","frequency":"570","website":null,"story":null,"photo":null,"model1":null,"model2":null,"model3":null,"service":"AM","status":null},{"id":"921","company":"CHON-FM","address":null,"city":"Whitehorse","state":"YT","country":"CANADA","longitude":"-135.05","latitude":"60.7167","owner":null,"power":null,"frequency":null,"website":null,"story":null,"photo":null,"model1":null,"model2":null,"model3":null,"service":null,"status":null},{"id":"922","company":"CKRW","address":null,"city":"Whitehorse","state":"YT","country":"CANADA","longitude":"-135.05","latitude":"60.7167","owner":null,"power":"1","frequency":"610","website":null,"story":null,"photo":null,"model1":null,"model2":null,"model3":null,"service":"AM","status":null},{"id":"3602","company":"KINY","address":null,"city":"Juneau","state":"AK","country":"UNITED STATES","longitude":"-134.42","latitude":"58.3019","owner":"JUNEAU ALASKA COMMUNICATIONS, LLC","power":"10","frequency":"800","website":null,"story":null,"photo":null,"model1":null,"model2":null,"model3":null,"service":"AM","status":null},{"id":"550","company":"CBC - INUVIK","address":null,"city":"Inuvik","state":"NT","country":"CANADA","longitude":"-133.608","latitude":"68.3371","owner":null,"power":null,"frequency":null,"website":null,"story":null,"photo":null,"model1":null,"model2":null,"model3":null,"service":null,"status":null},{"id":"4327","company":"KVRM","address":null,"city":"Petersburg","state":"AK","country":"UNITED STATES","longitude":"-132.956","latitude":"56.8125","owner":null,"power":null,"frequency":null,"website":null,"story":null,"photo":null,"model1":null,"model2":null,"model3":null,"service":null,"status":null},{"id":"846","company":"CFNR","address":null,"city":"Terrace","state":"BC","country":"CANADA","longitude":"-128.6","latitude":"54.5165","owner":null,"power":null,"frequency":null,"website":null,"story":null,"photo":null,"model1":null,"model2":null,"model3":null,"service":null,"status":null},{"id":"847","company":"CFPR","address":null,"city":"Terrace","state":"BC","country":"CANADA","longitude":"-128.6","latitude":"54.5165","owner":null,"power":"10","frequency":"860","website":null,"story":null,"photo":null,"model1":null,"model2":null,"model3":null,"service":"AM","status":null},{"id":"848","company":"CHTK","address":null,"city":"Terrace","state":"BC","country":"CANADA","longitude":"-128.6","latitude":"54.5165","owner":null,"power":"1","frequency":"560","website":null,"story":null,"photo":null,"model1":null,"model2":null,"model3":null,"service":"AM","status":null},{"id":"849","company":"CJFW","address":null,"city":"Terrace","state":"BC","country":"CANADA","longitude":"-128.6","latitude":"54.5165","owner":null,"power":null,"frequency":null,"website":null,"story":null,"photo":null,"model1":null,"model2":null,"model3":null,"service":null,"status":null},{"id":"786","company":"KEMESS MINE","address":null,"city":"Smither","state":"BC","country":"CANADA","longitude":"-127.168","latitude":"54.7819","owner":null,"power":null,"frequency":null,"website":null,"story":null,"photo":null,"model1":null,"model2":null,"model3":null,"service":null,"status":null},{"id":"431","company":"CBU-FM-1","address":null,"city":"Courtenay","state":"BC","country":"CANADA","longitude":"-124.993","latitude":"49.6869","owner":null,"power":null,"frequency":null,"website":null,"story":null,"photo":null,"model1":null,"model2":null,"model3":null,"service":null,"status":null},{"id":"432","company":"CFNI","address":null,"city":"Courtenay","state":"BC","country":"CANADA","longitude":"-124.993","latitude":"49.6869","owner":null,"power":"1","frequency":"1240","website":null,"story":null,"photo":null,"model1":null,"model2":null,"model3":null,"service":"AM","status":null},{"id":"2985","company":"BiCoastal Media, Inc.","address":null,"city":"Coquille","state":"OR","country":"UNITED STATES","longitude":"-124.188","latitude":"43.1771","owner":null,"power":null,"frequency":null,"website":null,"story":null,"photo":null,"model1":null,"model2":null,"model3":null,"service":null,"status":null},{"id":"3919","company":"KMDR","address":null,"city":"Mckineyville","state":"CA","country":"UNITED STATES","longitude":"-124.101","latitude":"40.9465","owner":"MAD RIVER RADIO, INC.","power":"2.3","frequency":"95.1","website":null,"story":null,"photo":null,"model1":null,"model2":null,"model3":null,"service":"FM","status":null},{"id":"3245","company":"KCST","address":null,"city":"Florence","state":"OR","country":"UNITED STATES","longitude":"-124.1","latitude":"43.9826","owner":null,"power":null,"frequency":null,"website":null,"story":null,"photo":null,"model1":null,"model2":null,"model3":null,"service":null,"status":null},{"id":"2524","company":"KHSU","address":null,"city":"Arcata","state":"CA","country":"UNITED STATES","longitude":"-124.083","latitude":"40.8665","owner":"HUMBOLDT STATE UNIVERSITY","power":"8.5","frequency":"90.5","website":null,"story":null,"photo":null,"model1":null,"model2":null,"model3":null,"service":"FM","status":null},{"id":"649","company":"CHPQ","address":null,"city":"Nanaimo","state":"BC","country":"CANADA","longitude":"-123.982","latitude":"49.1909","owner":null,"power":"1","frequency":"1370","website":null,"story":null,"photo":null,"model1":null,"model2":null,"model3":null,"service":"AM","status":null},{"id":"650","company":"CKEG","address":null,"city":"Nanaimo","state":"BC","country":"CANADA","longitude":"-123.982","latitude":"49.1909","owner":null,"power":"10","frequency":"1350","website":null,"story":null,"photo":null,"model1":null,"model2":null,"model3":null,"service":"AM","status":null},{"id":"651","company":"CKWV","address":null,"city":"Nanaimo","state":"BC","country":"CANADA","longitude":"-123.982","latitude":"49.1909","owner":null,"power":null,"frequency":null,"website":null,"story":null,"photo":null,"model1":null,"model2":null,"model3":null,"service":null,"status":null},{"id":"652","company":"ISLAND RADIO","address":null,"city":"Nanaimo","state":"BC","country":"CANADA","longitude":"-123.982","latitude":"49.1909","owner":null,"power":null,"frequency":null,"website":null,"story":null,"photo":null,"model1":null,"model2":null,"model3":null,"service":null,"status":null},{"id":"2546","company":"KCPB","address":null,"city":"Astoria","state":"OR","country":"UNITED STATES","longitude":"-123.831","latitude":"46.1879","owner":null,"power":null,"frequency":null,"website":null,"story":null,"photo":null,"model1":null,"model2":null,"model3":null,"service":null,"status":null},{"id":"4478","company":"KMUE","address":null,"city":"Redway","state":"CA","country":"UNITED STATES","longitude":"-123.823","latitude":"40.1201","owner":"REDWOOD COMMUNITY RADIO","power":"1.25","frequency":"88.3","website":null,"story":null,"photo":null,"model1":null,"model2":null,"model3":null,"service":"FM","status":null},{"id":"2441","company":"KXRO","address":null,"city":"Aberdeen","state":"WA","country":"UNITED STATES","longitude":"-123.816","latitude":"46.9754","owner":"MCC RADIO, LLC","power":"5","frequency":"1320","website":null,"story":null,"photo":null,"model1":null,"model2":null,"model3":null,"service":"AM","status":null},{"id":"3297","company":"KSAY","address":null,"city":"Ft. Bragg","state":"CA","country":"UNITED STATES","longitude":"-123.805","latitude":"39.4457","owner":"AXELL BROADCASTING","power":"3.5","frequency":"98.5","website":null,"story":null,"photo":null,"model1":null,"model2":null,"model3":null,"service":"FM","status":null},{"id":"3298","company":"KOZT","address":null,"city":"Ft. Braggs","state":"CA","country":"UNITED STATES","longitude":"-123.805","latitude":"39.4457","owner":"CALIFORNIA RADIO PARTNERS, INC.","power":"35","frequency":"95.3","website":null,"story":null,"photo":null,"model1":null,"model2":null,"model3":null,"service":"FM","status":null},{"id":"734","company":"KINK","address":null,"city":"Portland","state":"OR","country":"CANADA","longitude":"-123.539","latitude":"45.1543","owner":"ALPHA LICENSEE, LLC","power":"99","frequency":"101.9","website":null,"story":null,"photo":null,"model1":null,"model2":null,"model3":null,"service":"FM","status":null},{"id":"4385","company":"KONP","address":null,"city":"Port Angeles","state":"WA","country":"UNITED STATES","longitude":"-123.431","latitude":"48.1181","owner":"RADIO PACIFIC, INC.","power":"1","frequency":"1450","website":null,"story":null,"photo":null,"model1":null,"model2":null,"model3":null,"service":"AM","status":null},{"id":"4386","company":"RADIO PACIFIC INC.","address":null,"city":"Port Angeles","state":"WA","country":"UNITED STATES","longitude":"-123.431","latitude":"48.1181","owner":null,"power":null,"frequency":null,"website":null,"story":null,"photo":null,"model1":null,"model2":null,"model3":null,"service":null,"status":null},{"id":"907","company":"CJVI-FM","address":null,"city":"Victoria","state":"BC","country":"CANADA","longitude":"-123.366","latitude":"48.4286","owner":null,"power":null,"frequency":null,"website":null,"story":null,"photo":null,"model1":null,"model2":null,"model3":null,"service":null,"status":null},{"id":"908","company":"CKMO","address":null,"city":"Victoria","state":"BC","country":"CANADA","longitude":"-123.366","latitude":"48.4286","owner":null,"power":"10","frequency":"900","website":null,"story":null,"photo":null,"model1":null,"model2":null,"model3":null,"service":"AM","status":null},{"id":"909","company":"CKXM","address":null,"city":"Victoria","state":"BC","country":"CANADA","longitude":"-123.366","latitude":"48.4286","owner":null,"power":"50","frequency":"1200","website":null,"story":null,"photo":null,"model1":null,"model2":null,"model3":null,"service":"AM","status":null},{"id":"3374","company":"KAJO","address":null,"city":"Grants Pass","state":"OR","country":"UNITED STATES","longitude":"-123.328","latitude":"42.439","owner":"GRANTS PASS BROADCASTING CORPORATION","power":"10","frequency":"1270","website":null,"story":null,"photo":null,"model1":null,"model2":null,"model3":null,"service":"AM","status":null},{"id":"3375","company":"KLDR","address":null,"city":"Grants Pass","state":"OR","country":"UNITED STATES","longitude":"-123.328","latitude":"42.439","owner":"GRANTS PASS BROADCASTING CORP.","power":"1.85","frequency":"98.3","website":null,"story":null,"photo":null,"model1":null,"model2":null,"model3":null,"service":"FM","status":null},{"id":"745","company":"CCG","address":null,"city":"Richmond","state":"BC","country":"CANADA","longitude":"-123.138","latitude":"49.1635","owner":null,"power":null,"frequency":null,"website":null,"story":null,"photo":null,"model1":null,"model2":null,"model3":null,"service":null,"status":null},{"id":"746","company":"CFLP","address":null,"city":"Richmond","state":"BC","country":"CANADA","longitude":"-123.138","latitude":"49.1635","owner":null,"power":"10","frequency":"1000","website":null,"story":null,"photo":null,"model1":null,"model2":null,"model3":null,"service":"AM","status":null},{"id":"747","company":"CISL","address":null,"city":"Richmond","state":"BC","country":"CANADA","longitude":"-123.138","latitude":"49.1635","owner":null,"power":"10","frequency":"650","website":null,"story":null,"photo":null,"model1":null,"model2":null,"model3":null,"service":"AM","status":null},{"id":"748","company":"CKZZ","address":null,"city":"Richmond","state":"BC","country":"CANADA","longitude":"-123.138","latitude":"49.1635","owner":null,"power":null,"frequency":null,"website":null,"story":null,"photo":null,"model1":null,"model2":null,"model3":null,"service":null,"status":null},{"id":"893","company":"CFOX","address":null,"city":"Vancouver","state":"BC","country":"CANADA","longitude":"-123.114","latitude":"49.2612","owner":null,"power":null,"frequency":null,"website":null,"story":null,"photo":null,"model1":null,"model2":null,"model3":null,"service":null,"status":null},{"id":"894","company":"CFUN","address":null,"city":"Vancouver","state":"BC","country":"CANADA","longitude":"-123.114","latitude":"49.2612","owner":null,"power":"50","frequency":"1410","website":null,"story":null,"photo":null,"model1":null,"model2":null,"model3":null,"service":"AM","status":null},{"id":"895","company":"CHHR","address":null,"city":"Vancouver","state":"BC","country":"CANADA","longitude":"-123.114","latitude":"49.2612","owner":null,"power":null,"frequency":null,"website":null,"story":null,"photo":null,"model1":null,"model2":null,"model3":null,"service":null,"status":null},{"id":"896","company":"CHMJ","address":null,"city":"Vancouver","state":"BC","country":"CANADA","longitude":"-123.114","latitude":"49.2612","owner":null,"power":"50","frequency":"730","website":null,"story":null,"photo":null,"model1":null,"model2":null,"model3":null,"service":"AM","status":null},{"id":"897","company":"CHQM","address":null,"city":"Vancouver","state":"BC","country":"CANADA","longitude":"-123.114","latitude":"49.2612","owner":null,"power":"50","frequency":"1320","website":null,"story":null,"photo":null,"model1":null,"model2":null,"model3":null,"service":"AM","status":null},{"id":"898","company":"CISQ","address":null,"city":"Vancouver","state":"BC","country":"CANADA","longitude":"-123.114","latitude":"49.2612","owner":null,"power":null,"frequency":null,"website":null,"story":null,"photo":null,"model1":null,"model2":null,"model3":null,"service":null,"status":null},{"id":"899","company":"CKCL","address":null,"city":"Vancouver","state":"BC","country":"CANADA","longitude":"-123.114","latitude":"49.2612","owner":null,"power":"10","frequency":"600","website":null,"story":null,"photo":null,"model1":null,"model2":null,"model3":null,"service":"AM","status":null},{"id":"900","company":"CKNW","address":null,"city":"Vancouver","state":"BC","country":"CANADA","longitude":"-123.114","latitude":"49.2612","owner":null,"power":"50","frequency":"980","website":null,"story":null,"photo":null,"model1":null,"model2":null,"model3":null,"service":"AM","status":null},{"id":"901","company":"CKST","address":null,"city":"Vancouver","state":"BC","country":"CANADA","longitude":"-123.114","latitude":"49.2612","owner":null,"power":"10","frequency":"800","website":null,"story":null,"photo":null,"model1":null,"model2":null,"model3":null,"service":"AM","status":null},{"id":"902","company":"CKYE","address":null,"city":"Vancouver","state":"BC","country":"CANADA","longitude":"-123.114","latitude":"49.2612","owner":null,"power":null,"frequency":null,"website":null,"story":null,"photo":null,"model1":null,"model2":null,"model3":null,"service":null,"status":null},{"id":"903","company":"SHORE MEDIA GROUP","address":null,"city":"Vancouver","state":"BC","country":"CANADA","longitude":"-123.114","latitude":"49.2612","owner":null,"power":null,"frequency":null,"website":null,"story":null,"photo":null,"model1":null,"model2":null,"model3":null,"service":null,"status":null},{"id":"904","company":"SW DAVIS BROADCAST TECHNICAL SERVICES","address":null,"city":"Vancouver","state":"BC","country":"CANADA","longitude":"-123.114","latitude":"49.2612","owner":null,"power":null,"frequency":null,"website":null,"story":null,"photo":null,"model1":null,"model2":null,"model3":null,"service":null,"status":null},{"id":"4803","company":"KMAS","address":null,"city":"Shelton","state":"WA","country":"UNITED STATES","longitude":"-123.101","latitude":"47.2151","owner":"OLYMPIC BROADCASTING, INC.","power":"10","frequency":"1030","website":null,"story":null,"photo":null,"model1":null,"model2":null,"model3":null,"service":"AM","status":null},{"id":"3180","company":"ARLIE & COMPANY","address":null,"city":"Eugene","state":"OR","country":"UNITED STATES","longitude":"-123.087","latitude":"44.0521","owner":null,"power":null,"frequency":null,"website":null,"story":null,"photo":null,"model1":null,"model2":null,"model3":null,"service":null,"status":null},{"id":"3181","company":"CHURCHILL MEDIA","address":null,"city":"Eugene","state":"OR","country":"UNITED STATES","longitude":"-123.087","latitude":"44.0521","owner":null,"power":null,"frequency":null,"website":null,"story":null,"photo":null,"model1":null,"model2":null,"model3":null,"service":null,"status":null},{"id":"3182","company":"KKNU","address":null,"city":"Eugene","state":"OR","country":"UNITED STATES","longitude":"-123.087","latitude":"44.0521","owner":"MCKENZIE RIVER BROADCASTING COMPANY, INC.","power":"100","frequency":"93.3","website":null,"story":null,"photo":null,"model1":null,"model2":null,"model3":null,"service":"FM","status":null},{"id":"3183","company":"KLZS","address":null,"city":"Eugene","state":"OR","country":"UNITED STATES","longitude":"-123.087","latitude":"44.0521","owner":"CHURCHILL MEDIA LLC","power":"1","frequency":"1450","website":null,"story":null,"photo":null,"model1":null,"model2":null,"model3":null,"service":"AM","status":null},{"id":"3184","company":"KMGE","address":null,"city":"Eugene","state":"OR","country":"UNITED STATES","longitude":"-123.087","latitude":"44.0521","owner":"MCKENZIE RIVER BROADCASTING COMPANY, INC.","power":"49","frequency":"94.5","website":null,"story":null,"photo":null,"model1":null,"model2":null,"model3":null,"service":"FM","status":null},{"id":"3185","company":"KMKR","address":null,"city":"Eugene","state":"OR","country":"UNITED STATES","longitude":"-123.087","latitude":"44.0521","owner":"LANE COUNTY SCHOOL DISTRICT NO. 4J","power":"6","frequency":"92.1","website":null,"story":null,"photo":null,"model1":null,"model2":null,"model3":null,"service":"FM","status":null},{"id":"3186","company":"KQFE","address":null,"city":"Eugene","state":"OR","country":"UNITED STATES","longitude":"-123.087","latitude":"44.0521","owner":"FAMILY STATIONS, INC.","power":"1.25","frequency":"88.9","website":null,"story":null,"photo":null,"model1":null,"model2":null,"model3":null,"service":"FM","status":null},{"id":"3187","company":"KRVM","address":null,"city":"Eugene","state":"OR","country":"UNITED STATES","longitude":"-123.087","latitude":"44.0521","owner":"LANE COUNTY SCHOOL DISTRICT 4J","power":"5","frequency":"1280","website":null,"story":null,"photo":null,"model1":null,"model2":null,"model3":null,"service":"AM","status":null},{"id":"3188","company":"KXPD","address":null,"city":"Eugene","state":"OR","country":"UNITED STATES","longitude":"-123.087","latitude":"44.0521","owner":"CHURCHILL MEDIA LLC","power":"2.2","frequency":"1040","website":null,"story":null,"photo":null,"model1":null,"model2":null,"model3":null,"service":"AM","status":null},{"id":"3189","company":"MCKENZIE RIVER BROADCASTING","address":null,"city":"Eugene","state":"OR","country":"UNITED STATES","longitude":"-123.087","latitude":"44.0521","owner":null,"power":null,"frequency":null,"website":null,"story":null,"photo":null,"model1":null,"model2":null,"model3":null,"service":null,"status":null},{"id":"386","company":"CBU","address":null,"city":"Burnaby","state":"BC","country":"CANADA","longitude":"-122.974","latitude":"49.2489","owner":null,"power":"50","frequency":"690","website":null,"story":null,"photo":null,"model1":null,"model2":null,"model3":null,"service":"AM","status":null},{"id":"2823","company":"CENTRALIA COLLEGE","address":null,"city":"Centralia","state":"WA","country":"UNITED STATES","longitude":"-122.954","latitude":"46.7162","owner":null,"power":null,"frequency":null,"website":null,"story":null,"photo":null,"model1":null,"model2":null,"model3":null,"service":null,"status":null},{"id":"2824","company":"KCED","address":null,"city":"Centralia","state":"WA","country":"UNITED STATES","longitude":"-122.954","latitude":"46.7162","owner":"CENTRALIA COLLEGE, DISTRICT 12, STATE OF WASHINGTON","power":"1","frequency":"91.3","website":null,"story":null,"photo":null,"model1":null,"model2":null,"model3":null,"service":"FM","status":null},{"id":"3679","company":"KXBX","address":null,"city":"Lakeport","state":"CA","country":"UNITED STATES","longitude":"-122.916","latitude":"39.0429","owner":"BICOASTAL MEDIA LICENSES, LLC","power":"0.5","frequency":"1270","website":null,"story":null,"photo":null,"model1":null,"model2":null,"model3":null,"service":"AM","status":null},{"id":"5012","company":"KVSN","address":null,"city":"Tumwater","state":"WA","country":"UNITED STATES","longitude":"-122.909","latitude":"47.0073","owner":null,"power":null,"frequency":null,"website":null,"story":null,"photo":null,"model1":null,"model2":null,"model3":null,"service":null,"status":null},{"id":"3615","company":"KUKN","address":null,"city":"Kelso","state":"WA","country":"UNITED STATES","longitude":"-122.908","latitude":"46.1468","owner":"WASHINGTON INTERSTATE BROADCASTING, INC.","power":"0.7","frequency":"105.5","website":null,"story":null,"photo":null,"model1":null,"model2":null,"model3":null,"service":"FM","status":null},{"id":"3616","company":"WASHINGTON INTERSTATE BROAD","address":null,"city":"Kelso","state":"WA","country":"UNITED STATES","longitude":"-122.908","latitude":"46.1468","owner":null,"power":null,"frequency":null,"website":null,"story":null,"photo":null,"model1":null,"model2":null,"model3":null,"service":null,"status":null},{"id":"4263","company":"KBRD","address":null,"city":"Olympia","state":"WA","country":"UNITED STATES","longitude":"-122.901","latitude":"47.0379","owner":"BJ & SKIP'S FOR THE MUSIC","power":"0.25","frequency":"680","website":null,"story":null,"photo":null,"model1":null,"model2":null,"model3":null,"service":"AM","status":null},{"id":"4264","company":"KGY","address":null,"city":"Olympia","state":"WA","country":"UNITED STATES","longitude":"-122.901","latitude":"47.0379","owner":"KGY, INC.","power":"1","frequency":"1240","website":null,"story":null,"photo":null,"model1":null,"model2":null,"model3":null,"service":"AM","status":null},{"id":"3921","company":"Radio Medford","address":null,"city":"Medford","state":"OR","country":"UNITED STATES","longitude":"-122.876","latitude":"42.3265","owner":null,"power":null,"frequency":null,"website":null,"story":null,"photo":null,"model1":null,"model2":null,"model3":null,"service":null,"status":null},{"id":"836","company":"SOUTH ASIAN BROADCASTING CORP","address":null,"city":"Surrey","state":"BC","country":"CANADA","longitude":"-122.828","latitude":"49.1059","owner":null,"power":null,"frequency":null,"website":null,"story":null,"photo":null,"model1":null,"model2":null,"model3":null,"service":null,"status":null},{"id":"4087","company":"KTRP","address":null,"city":"Mt. Angel","state":"OR","country":"UNITED STATES","longitude":"-122.8","latitude":"45.0679","owner":"TREASURE VALLEY BROADCASTING CO.","power":"8.4","frequency":"1260","website":null,"story":null,"photo":null,"model1":null,"model2":null,"model3":null,"service":"AM","status":null},{"id":"736","company":"CFUR - University of Northern BC","address":null,"city":"Prince George","state":"BC","country":"CANADA","longitude":"-122.777","latitude":"53.9185","owner":null,"power":null,"frequency":null,"website":null,"story":null,"photo":null,"model1":null,"model2":null,"model3":null,"service":null,"status":null},{"id":"737","company":"CFUR Radio","address":null,"city":"Prince George","state":"BC","country":"CANADA","longitude":"-122.777","latitude":"53.9185","owner":null,"power":null,"frequency":null,"website":null,"story":null,"photo":null,"model1":null,"model2":null,"model3":null,"service":null,"status":null},{"id":"4989","company":"BOYD BROADCAST TECHNICAL","address":null,"city":"Tualatin","state":"OR","country":"UNITED STATES","longitude":"-122.764","latitude":"45.384","owner":null,"power":null,"frequency":null,"website":null,"story":null,"photo":null,"model1":null,"model2":null,"model3":null,"service":null,"status":null},{"id":"4990","company":"KPAM","address":null,"city":"Tualatin","state":"OR","country":"UNITED STATES","longitude":"-122.764","latitude":"45.384","owner":"PAMPLIN BROADCASTING-OREGON, INC.","power":"50","frequency":"860","website":null,"story":null,"photo":null,"model1":null,"model2":null,"model3":null,"service":"AM","status":null},{"id":"4393","company":"KPTZ","address":null,"city":"Port Townsend","state":"WA","country":"UNITED STATES","longitude":"-122.76","latitude":"48.117","owner":null,"power":null,"frequency":null,"website":null,"story":null,"photo":null,"model1":null,"model2":null,"model3":null,"service":null,"status":null},{"id":"4719","company":"K106 3 FM","address":null,"city":"Santa Rosa","state":"CA","country":"UNITED STATES","longitude":"-122.714","latitude":"38.4405","owner":null,"power":null,"frequency":null,"website":null,"story":null,"photo":null,"model1":null,"model2":null,"model3":null,"service":null,"status":null},{"id":"4720","company":"KFGY","address":null,"city":"Santa Rosa","state":"CA","country":"UNITED STATES","longitude":"-122.714","latitude":"38.4405","owner":"MAVERICK MEDIA OF SANTA ROSA LICENSE LLC","power":"2.3","frequency":"92.9","website":null,"story":null,"photo":null,"model1":null,"model2":null,"model3":null,"service":"FM","status":null},{"id":"4721","company":"KGRP","address":null,"city":"Santa Rosa","state":"CA","country":"UNITED STATES","longitude":"-122.714","latitude":"38.4405","owner":null,"power":null,"frequency":null,"website":null,"story":null,"photo":null,"model1":null,"model2":null,"model3":null,"service":null,"status":null},{"id":"4722","company":"KJZY","address":null,"city":"Santa Rosa","state":"CA","country":"UNITED STATES","longitude":"-122.714","latitude":"38.4405","owner":"REDWOOD EMPIRE STEREOCASTERS","power":"6","frequency":"93.7","website":null,"story":null,"photo":null,"model1":null,"model2":null,"model3":null,"service":"FM","status":null},{"id":"4723","company":"KSRO","address":null,"city":"Santa Rosa","state":"CA","country":"UNITED STATES","longitude":"-122.714","latitude":"38.4405","owner":"MAVERICK MEDIA OF SANTA ROSA LICENSE LLC","power":"5","frequency":"1350","website":null,"story":null,"photo":null,"model1":null,"model2":null,"model3":null,"service":"AM","status":null},{"id":"4724","company":"KXFX","address":null,"city":"Santa Rosa","state":"CA","country":"UNITED STATES","longitude":"-122.714","latitude":"38.4405","owner":"MAVERICK MEDIA OF SANTA ROSA LICENSE LLC","power":"2.2","frequency":"101.7","website":null,"story":null,"photo":null,"model1":null,"model2":null,"model3":null,"service":"FM","status":null},{"id":"4725","company":"KZST","address":null,"city":"Santa Rosa","state":"CA","country":"UNITED STATES","longitude":"-122.714","latitude":"38.4405","owner":"REDWOOD EMPIRE STEREOCASTERS","power":"6","frequency":"100.1","website":null,"story":null,"photo":null,"model1":null,"model2":null,"model3":null,"service":"FM","status":null},{"id":"4726","company":"RESULTS RADIO LLC","address":null,"city":"Santa Rosa","state":"CA","country":"UNITED STATES","longitude":"-122.714","latitude":"38.4405","owner":null,"power":null,"frequency":null,"website":null,"story":null,"photo":null,"model1":null,"model2":null,"model3":null,"service":null,"status":null},{"id":"2540","company":"Jefferson Public Radio","address":null,"city":"Ashland","state":"OR","country":"UNITED STATES","longitude":"-122.709","latitude":"42.1946","owner":null,"power":null,"frequency":null,"website":null,"story":null,"photo":null,"model1":null,"model2":null,"model3":null,"service":null,"status":null},{"id":"4394","company":"All Classical Public Media","address":null,"city":"Portland","state":"OR","country":"UNITED STATES","longitude":"-122.676","latitude":"45.5235","owner":null,"power":null,"frequency":null,"website":null,"story":null,"photo":null,"model1":null,"model2":null,"model3":null,"service":null,"status":null},{"id":"4395","company":"Entercom Portland","address":null,"city":"Portland","state":"OR","country":"UNITED STATES","longitude":"-122.676","latitude":"45.5235","owner":null,"power":null,"frequency":null,"website":null,"story":null,"photo":null,"model1":null,"model2":null,"model3":null,"service":null,"status":null},{"id":"4396","company":"KBMS","address":null,"city":"Portland","state":"OR","country":"UNITED STATES","longitude":"-122.676","latitude":"45.5235","owner":"CHRISTOPHER H. BENNETT BROADCASTING OF WASHINGTON, INC.","power":"2.5","frequency":"1480","website":null,"story":null,"photo":null,"model1":null,"model2":null,"model3":null,"service":"AM","status":null},{"id":"4397","company":"KBPS","address":null,"city":"Portland","state":"OR","country":"UNITED STATES","longitude":"-122.676","latitude":"45.5235","owner":"SCHOOL DISTRICT #1, MULTNOMAH COUNTY, OR","power":"1","frequency":"1450","website":null,"story":null,"photo":null,"model1":null,"model2":null,"model3":null,"service":"AM","status":null},{"id":"4398","company":"KDZR","address":null,"city":"Portland","state":" OR","country":"UNITED STATES","longitude":"-122.676","latitude":"45.5235","owner":"RADIO DISNEY GROUP, LLC","power":"10","frequency":"1640","website":null,"story":null,"photo":null,"model1":null,"model2":null,"model3":null,"service":"AM","status":null},{"id":"4399","company":"KGDD","address":null,"city":"Portland","state":"OR","country":"UNITED STATES","longitude":"-122.676","latitude":"45.5235","owner":"ADELANTE MEDIA OF OREGON LICENSE LLC","power":"50","frequency":"1520","website":null,"story":null,"photo":null,"model1":null,"model2":null,"model3":null,"service":"AM","status":null},{"id":"4400","company":"KKPZ","address":null,"city":"Portland","state":"OR","country":"UNITED STATES","longitude":"-122.676","latitude":"45.5235","owner":"KPHP RADIO, INC.","power":"5","frequency":"1330","website":null,"story":null,"photo":null,"model1":null,"model2":null,"model3":null,"service":"AM","status":null},{"id":"4401","company":"KLTH","address":null,"city":"Portland","state":"OR","country":"UNITED STATES","longitude":"-122.676","latitude":"45.5235","owner":"CITICASTERS LICENSES, INC.","power":"96","frequency":"106.7","website":null,"story":null,"photo":null,"model1":null,"model2":null,"model3":null,"service":"FM","status":null},{"id":"4402","company":"KMHD","address":null,"city":"Portland","state":"OR","country":"UNITED STATES","longitude":"-122.676","latitude":"45.5235","owner":"MT. HOOD COMMUNITY COLLEGE DISTRICT","power":"7.9","frequency":"89.1","website":null,"story":null,"photo":null,"model1":null,"model2":null,"model3":null,"service":"FM","status":null},{"id":"4403","company":"KQHR","address":null,"city":"Portland","state":"OR","country":"UNITED STATES","longitude":"-122.676","latitude":"45.5235","owner":"ALL CLASSICAL PUBLIC MEDIA, INC.","power":"3","frequency":"88.1","website":null,"story":null,"photo":null,"model1":null,"model2":null,"model3":null,"service":"FM","status":null},{"id":"4404","company":"KQOC","address":null,"city":"Portland","state":"OR","country":"UNITED STATES","longitude":"-122.676","latitude":"45.5235","owner":"ALL CLASSICAL PUBLIC MEDIA, INC.","power":"8.8","frequency":"88.1","website":null,"story":null,"photo":null,"model1":null,"model2":null,"model3":null,"service":"FM","status":null},{"id":"4405","company":"KRYP","address":null,"city":"Portland","state":"OR","country":"UNITED STATES","longitude":"-122.676","latitude":"45.5235","owner":"SALEM MEDIA OF OREGON, INC.","power":"1.55","frequency":"93.1","website":null,"story":null,"photo":null,"model1":null,"model2":null,"model3":null,"service":"FM","status":null},{"id":"4406","company":"KSLC","address":null,"city":"Portland","state":"OR","country":"UNITED STATES","longitude":"-122.676","latitude":"45.5235","owner":"LINFIELD COLLEGE","power":"0.75","frequency":"90.3","website":null,"story":null,"photo":null,"model1":null,"model2":null,"model3":null,"service":"FM","status":null},{"id":"4407","company":"KXJM","address":null,"city":"Portland","state":"OR","country":"UNITED STATES","longitude":"-122.676","latitude":"45.5235","owner":"CITICASTERS LICENSES, INC.","power":"68","frequency":"107.5","website":null,"story":null,"photo":null,"model1":null,"model2":null,"model3":null,"service":"FM","status":null},{"id":"4408","company":"KXL","address":null,"city":"Portland","state":"OR","country":"UNITED STATES","longitude":"-122.676","latitude":"45.5235","owner":"ALPHA LICENSEE, LLC","power":"50","frequency":"750","website":null,"story":null,"photo":null,"model1":null,"model2":null,"model3":null,"service":"AM","status":null},{"id":"4409","company":"KZZR","address":null,"city":"Portland","state":"OR","country":"UNITED STATES","longitude":"-122.676","latitude":"45.5235","owner":"BUSTOS MEDIA HOLDINGS, LLC","power":"3.4","frequency":"94.3","website":null,"story":null,"photo":null,"model1":null,"model2":null,"model3":null,"service":"FM","status":null},{"id":"580","company":"CJUP","address":null,"city":"Langley","state":"BC","country":"CANADA","longitude":"-122.655","latitude":"49.0988","owner":null,"power":null,"frequency":null,"website":null,"story":null,"photo":null,"model1":null,"model2":null,"model3":null,"service":null,"status":null},{"id":"4238","company":"KJTT","address":null,"city":"Oak Harbor","state":"WA","country":"UNITED STATES","longitude":"-122.643","latitude":"48.2932","owner":null,"power":null,"frequency":null,"website":null,"story":null,"photo":null,"model1":null,"model2":null,"model3":null,"service":null,"status":null},{"id":"4239","company":"KWDB","address":null,"city":"Oak Harbour","state":"WA","country":"UNITED STATES","longitude":"-122.643","latitude":"48.2932","owner":"ACTION PAGES, LLC","power":"0.5","frequency":"1110","website":null,"story":null,"photo":null,"model1":null,"model2":null,"model3":null,"service":"AM","status":null},{"id":"4838","company":"KDIA","address":null,"city":"Sonoma","state":"CA","country":"UNITED STATES","longitude":"-122.458","latitude":"38.2919","owner":"BAYBRIDGE COMMUNICATIONS, L.L.C.","power":"10","frequency":"1640","website":null,"story":null,"photo":null,"model1":null,"model2":null,"model3":null,"service":"AM","status":null},{"id":"4930","company":"Broadcast Services NW","address":null,"city":"Tacoma","state":"WA","country":"UNITED STATES","longitude":"-122.444","latitude":"47.2529","owner":null,"power":null,"frequency":null,"website":null,"story":null,"photo":null,"model1":null,"model2":null,"model3":null,"service":null,"status":null},{"id":"4931","company":"BSW (Broadcast Supply Worldwide)","address":null,"city":"Tacoma","state":"WA","country":"UNITED STATES","longitude":"-122.444","latitude":"47.2529","owner":null,"power":null,"frequency":null,"website":null,"story":null,"photo":null,"model1":null,"model2":null,"model3":null,"service":null,"status":null},{"id":"4932","company":"KHHO","address":null,"city":"Tacoma","state":"WA","country":"UNITED STATES","longitude":"-122.444","latitude":"47.2529","owner":"CITICASTERS LICENSES, INC.","power":"10","frequency":"850","website":null,"story":null,"photo":null,"model1":null,"model2":null,"model3":null,"service":"AM","status":null},{"id":"4933","company":"KLAY","address":null,"city":"Tacoma","state":"WA","country":"UNITED STATES","longitude":"-122.444","latitude":"47.2529","owner":"CLAY FRANK HUNTINGTON","power":"5","frequency":"1180","website":null,"story":null,"photo":null,"model1":null,"model2":null,"model3":null,"service":"AM","status":null},{"id":"4934","company":"KPLI","address":null,"city":"Tacoma","state":"WA","country":"UNITED STATES","longitude":"-122.444","latitude":"47.2529","owner":"PACIFIC LUTHERAN UNIVERSITY, INC.","power":"0.1","frequency":"90.1","website":null,"story":null,"photo":null,"model1":null,"model2":null,"model3":null,"service":"FM","status":null},{"id":"4935","company":"KPLU","address":null,"city":"Tacoma","state":"WA","country":"UNITED STATES","longitude":"-122.444","latitude":"47.2529","owner":null,"power":null,"frequency":null,"website":null,"story":null,"photo":null,"model1":null,"model2":null,"model3":null,"service":null,"status":null},{"id":"4936","company":"KVIX","address":null,"city":"Tacoma","state":"WA","country":"UNITED STATES","longitude":"-122.444","latitude":"47.2529","owner":"PACIFIC LUTHERAN UNIVERSITY, INC.","power":"0.6","frequency":"89.3","website":null,"story":null,"photo":null,"model1":null,"model2":null,"model3":null,"service":"FM","status":null},{"id":"4937","company":"PACIFIC LUTHERN UNIVERSITY","address":null,"city":"Tacoma","state":"WA","country":"UNITED STATES","longitude":"-122.444","latitude":"47.2529","owner":null,"power":null,"frequency":null,"website":null,"story":null,"photo":null,"model1":null,"model2":null,"model3":null,"service":null,"status":null},{"id":"4668","company":"KABL","address":null,"city":"San Francisco","state":"CA","country":"UNITED STATES","longitude":"-122.419","latitude":"37.7749","owner":null,"power":null,"frequency":null,"website":null,"story":null,"photo":null,"model1":null,"model2":null,"model3":null,"service":null,"status":null},{"id":"4669","company":"KBLX","address":null,"city":"San Francisco","state":"CA","country":"UNITED STATES","longitude":"-122.419","latitude":"37.7749","owner":null,"power":null,"frequency":null,"website":null,"story":null,"photo":null,"model1":null,"model2":null,"model3":null,"service":null,"status":null},{"id":"4670","company":"KEST","address":null,"city":"San Francisco","state":"CA","country":"UNITED STATES","longitude":"-122.419","latitude":"37.7749","owner":"MULTICULTURAL RADIO BROADCASTING LICENSEE, LLC","power":"1","frequency":"1450","website":null,"story":null,"photo":null,"model1":null,"model2":null,"model3":null,"service":"AM","status":null},{"id":"4671","company":"KGO","address":null,"city":"San Francisco","state":"CA","country":"UNITED STATES","longitude":"-122.419","latitude":"37.7749","owner":"RADIO LICENSE HOLDING VIII, LLC","power":"50","frequency":"810","website":null,"story":null,"photo":null,"model1":null,"model2":null,"model3":null,"service":"AM","status":null},{"id":"4672","company":"KKSF","address":null,"city":"San Francisco","state":"CA","country":"UNITED STATES","longitude":"-122.419","latitude":"37.7749","owner":"AMFM BROADCASTING LICENSES, LLC","power":"7.2","frequency":"103.7","website":null,"story":null,"photo":null,"model1":null,"model2":null,"model3":null,"service":"FM","status":null},{"id":"4673","company":"KOIT","address":null,"city":"San Francisco","state":"CA","country":"UNITED STATES","longitude":"-122.419","latitude":"37.7749","owner":"ENTERCOM SAN FRANCISCO LICENSE, LLC","power":"24","frequency":"96.5","website":null,"story":null,"photo":null,"model1":null,"model2":null,"model3":null,"service":"FM","status":null},{"id":"4674","company":"KPOO-FM","address":null,"city":"San Francisco","state":"CA","country":"UNITED STATES","longitude":"-122.419","latitude":"37.7749","owner":null,"power":null,"frequency":null,"website":null,"story":null,"photo":null,"model1":null,"model2":null,"model3":null,"service":null,"status":null},{"id":"4675","company":"KQED","address":null,"city":"San Francisco","state":"CA","country":"UNITED STATES","longitude":"-122.419","latitude":"37.7749","owner":null,"power":null,"frequency":null,"website":null,"story":null,"photo":null,"model1":null,"model2":null,"model3":null,"service":null,"status":null},{"id":"4676","company":"KRZZ","address":null,"city":"San Francisco","state":"CA","country":"UNITED STATES","longitude":"-122.419","latitude":"37.7749","owner":"KRZZ LICENSING, INC.","power":"6","frequency":"93.3","website":null,"story":null,"photo":null,"model1":null,"model2":null,"model3":null,"service":"FM","status":null},{"id":"4677","company":"KSFN","address":null,"city":"San Francisco","state":"CA","country":"UNITED STATES","longitude":"-122.419","latitude":"37.7749","owner":"MAPLETON LICENSE OF SAN FRANCISCO, LLC","power":"8","frequency":"1510","website":null,"story":null,"photo":null,"model1":null,"model2":null,"model3":null,"service":"AM","status":null},{"id":"4678","company":"KSFO","address":null,"city":"San Francisco","state":"CA","country":"UNITED STATES","longitude":"-122.419","latitude":"37.7749","owner":"RADIO LICENSE HOLDING VIII, LLC","power":"5","frequency":"560","website":null,"story":null,"photo":null,"model1":null,"model2":null,"model3":null,"service":"AM","status":null},{"id":"4679","company":"KTCT","address":null,"city":"San Francisco","state":"CA","country":"UNITED STATES","longitude":"-122.419","latitude":"37.7749","owner":"SUSQUEHANNA RADIO CORP.","power":"50","frequency":"1050","website":null,"story":null,"photo":null,"model1":null,"model2":null,"model3":null,"service":"AM","status":null},{"id":"4680","company":"KTOB","address":null,"city":"San Francisco","state":"CA","country":"UNITED STATES","longitude":"-122.419","latitude":"37.7749","owner":"MOON BROADCASTING LICENSEE LLC","power":"1","frequency":"1490","website":null,"story":null,"photo":null,"model1":null,"model2":null,"model3":null,"service":"AM","status":null},{"id":"4681","company":"KYCY","address":null,"city":"San Francisco","state":"CA","country":"UNITED STATES","longitude":"-122.419","latitude":"37.7749","owner":null,"power":null,"frequency":null,"website":null,"story":null,"photo":null,"model1":null,"model2":null,"model3":null,"service":null,"status":null},{"id":"4682","company":"Spanish Broadcasting System Inc","address":null,"city":"San Francisco","state":"CA","country":"UNITED STATES","longitude":"-122.419","latitude":"37.7749","owner":null,"power":null,"frequency":null,"website":null,"story":null,"photo":null,"model1":null,"model2":null,"model3":null,"service":null,"status":null},{"id":"4683","company":"UNIVISION RADIO San Francisco","address":null,"city":"San Francisco","state":"CA","country":"UNITED STATES","longitude":"-122.419","latitude":"37.7749","owner":null,"power":null,"frequency":null,"website":null,"story":null,"photo":null,"model1":null,"model2":null,"model3":null,"service":null,"status":null},{"id":"2782","company":"KORC","address":null,"city":"Camas","state":"WA","country":"UNITED STATES","longitude":"-122.4","latitude":"45.5871","owner":"KORC RADIO, INC.","power":"1","frequency":"820","website":null,"story":null,"photo":null,"model1":null,"model2":null,"model3":null,"service":"AM","status":null},{"id":"4474","company":"KVIP RADIO","address":null,"city":"Redding","state":"CA","country":"UNITED STATES","longitude":"-122.392","latitude":"40.5865","owner":null,"power":null,"frequency":null,"website":null,"story":null,"photo":null,"model1":null,"model2":null,"model3":null,"service":null,"status":null},{"id":"4475","company":"NO.VALLEY","address":null,"city":"Redding","state":"CA","country":"UNITED STATES","longitude":"-122.392","latitude":"40.5865","owner":null,"power":null,"frequency":null,"website":null,"story":null,"photo":null,"model1":null,"model2":null,"model3":null,"service":null,"status":null},{"id":"3675","company":"WKVW","address":null,"city":"Lake Shasta","state":"CA","country":"UNITED STATES","longitude":"-122.372","latitude":"40.7602","owner":"EDUCATIONAL MEDIA FOUNDATION","power":"1.7","frequency":"93.3","website":null,"story":null,"photo":null,"model1":null,"model2":null,"model3":null,"service":"FM","status":null},{"id":"4496","company":"KDYA","address":null,"city":"Richmond","state":"CA","country":"UNITED STATES","longitude":"-122.348","latitude":"37.9358","owner":"BAYBRIDGE COMMUNICATIONS, L.L.C.","power":"1","frequency":"1190","website":null,"story":null,"photo":null,"model1":null,"model2":null,"model3":null,"service":"AM","status":null},{"id":"4810","company":"KCMS","address":null,"city":"Shoreline","state":"WA","country":"UNITED STATES","longitude":"-122.342","latitude":"47.7557","owner":"CRISTA MINISTRIES","power":"54","frequency":"105.3","website":null,"story":null,"photo":null,"model1":null,"model2":null,"model3":null,"service":"FM","status":null},{"id":"4084","company":"KBRC","address":null,"city":"Mount Vernon","state":"WA","country":"UNITED STATES","longitude":"-122.334","latitude":"48.4212","owner":"JIM AND ANN KEANE","power":"5","frequency":"1430","website":null,"story":null,"photo":null,"model1":null,"model2":null,"model3":null,"service":"AM","status":null},{"id":"4085","company":"KSVU","address":null,"city":"Mount Vernon","state":"WA","country":"UNITED STATES","longitude":"-122.334","latitude":"48.4212","owner":null,"power":null,"frequency":null,"website":null,"story":null,"photo":null,"model1":null,"model2":null,"model3":null,"service":null,"status":null},{"id":"4755","company":"CRISTA BROADCASTING","address":null,"city":"Seattle","state":"WA","country":"UNITED STATES","longitude":"-122.332","latitude":"47.6062","owner":null,"power":null,"frequency":null,"website":null,"story":null,"photo":null,"model1":null,"model2":null,"model3":null,"service":null,"status":null},{"id":"4756","company":"FISHER RADIO SEATTLE","address":null,"city":"Seattle","state":"WA","country":"UNITED STATES","longitude":"-122.332","latitude":"47.6062","owner":null,"power":null,"frequency":null,"website":null,"story":null,"photo":null,"model1":null,"model2":null,"model3":null,"service":null,"status":null},{"id":"4757","company":"KBLE","address":null,"city":"Seattle","state":"WA","country":"UNITED STATES","longitude":"-122.332","latitude":"47.6062","owner":"SACRED HEART RADIO, INC.","power":"5","frequency":"1050","website":null,"story":null,"photo":null,"model1":null,"model2":null,"model3":null,"service":"AM","status":null},{"id":"4758","company":"KBRO","address":null,"city":"Seattle","state":"WA","country":"UNITED STATES","longitude":"-122.332","latitude":"47.6062","owner":"SEATTLE STREAMING RADIO, LLC","power":"1","frequency":"1490","website":null,"story":null,"photo":null,"model1":null,"model2":null,"model3":null,"service":"AM","status":null},{"id":"4759","company":"KCIS","address":null,"city":"Seattle","state":"WA","country":"UNITED STATES","longitude":"-122.332","latitude":"47.6062","owner":"CRISTA MINISTRIES","power":"5","frequency":"630","website":null,"story":null,"photo":null,"model1":null,"model2":null,"model3":null,"service":"AM","status":null},{"id":"4760","company":"KEXP","address":null,"city":"Seattle","state":"WA","country":"UNITED STATES","longitude":"-122.332","latitude":"47.6062","owner":null,"power":null,"frequency":null,"website":null,"story":null,"photo":null,"model1":null,"model2":null,"model3":null,"service":null,"status":null},{"id":"4761","company":"KIRO","address":null,"city":"Seattle","state":"WA","country":"UNITED STATES","longitude":"-122.332","latitude":"47.6062","owner":"BONNEVILLE HOLDING COMPANY","power":"50","frequency":"710","website":null,"story":null,"photo":null,"model1":null,"model2":null,"model3":null,"service":"AM","status":null},{"id":"4762","company":"KJR","address":null,"city":"Seattle","state":"WA","country":"UNITED STATES","longitude":"-122.332","latitude":"47.6062","owner":"CITICASTERS LICENSES, INC.","power":"50","frequency":"950","website":null,"story":null,"photo":null,"model1":null,"model2":null,"model3":null,"service":"AM","status":null},{"id":"4763","company":"KNHC","address":null,"city":"Seattle","state":"WA","country":"UNITED STATES","longitude":"-122.332","latitude":"47.6062","owner":"SEATTLE PUBLIC SCHOOLS","power":"8.5","frequency":"89.5","website":null,"story":null,"photo":null,"model1":null,"model2":null,"model3":null,"service":"FM","status":null},{"id":"4764","company":"KOMO","address":null,"city":"Seattle","state":"WA","country":"UNITED STATES","longitude":"-122.332","latitude":"47.6062","owner":"FISHER BROADCASTING - SEATTLE RADIO, L.L.C.","power":"50","frequency":"1000","website":null,"story":null,"photo":null,"model1":null,"model2":null,"model3":null,"service":"AM","status":null},{"id":"4765","company":"KPTK","address":null,"city":"Seattle","state":"WA","country":"UNITED STATES","longitude":"-122.332","latitude":"47.6062","owner":"CBS RADIO HOLDINGS INC.","power":"50","frequency":"1090","website":null,"story":null,"photo":null,"model1":null,"model2":null,"model3":null,"service":"AM","status":null},{"id":"4766","company":"KQOW","address":null,"city":"Seattle","state":"WA","country":"UNITED STATES","longitude":"-122.332","latitude":"47.6062","owner":null,"power":null,"frequency":null,"website":null,"story":null,"photo":null,"model1":null,"model2":null,"model3":null,"service":null,"status":null},{"id":"4767","company":"KRIZ","address":null,"city":"Seattle","state":"WA","country":"UNITED STATES","longitude":"-122.332","latitude":"47.6062","owner":"KRIZ BROADCASTING, INC.","power":"1","frequency":"1420","website":null,"story":null,"photo":null,"model1":null,"model2":null,"model3":null,"service":"AM","status":null},{"id":"4768","company":"KUBE","address":null,"city":"Seattle","state":"WA","country":"UNITED STATES","longitude":"-122.332","latitude":"47.6062","owner":"CITICASTERS LICENSES, INC.","power":"98","frequency":"93.3","website":null,"story":null,"photo":null,"model1":null,"model2":null,"model3":null,"service":"FM","status":null},{"id":"4769","company":"KUOW","address":null,"city":"Seattle","state":"WA","country":"UNITED STATES","longitude":"-122.332","latitude":"47.6062","owner":"KUOW\/PUGET SOUND PUBLIC RADIO","power":"1","frequency":"1340","website":null,"story":null,"photo":null,"model1":null,"model2":null,"model3":null,"service":"AM","status":null},{"id":"4770","company":"KUOW Puget Sound Public Radio","address":null,"city":"Seattle","state":"WA","country":"UNITED STATES","longitude":"-122.332","latitude":"47.6062","owner":null,"power":null,"frequency":null,"website":null,"story":null,"photo":null,"model1":null,"model2":null,"model3":null,"service":null,"status":null},{"id":"4771","company":"KVI","address":null,"city":"Seattle","state":"WA","country":"UNITED STATES","longitude":"-122.332","latitude":"47.6062","owner":"FISHER BROADCASTING - SEATTLE RADIO, L.L.C.","power":"5","frequency":"570","website":null,"story":null,"photo":null,"model1":null,"model2":null,"model3":null,"service":"AM","status":null},{"id":"4772","company":"KWJZ","address":null,"city":"Seattle","state":"WA","country":"UNITED STATES","longitude":"-122.332","latitude":"47.6062","owner":null,"power":null,"frequency":null,"website":null,"story":null,"photo":null,"model1":null,"model2":null,"model3":null,"service":null,"status":null},{"id":"4773","company":"SEATTLE SCHOOL DISTRICT NO.1","address":null,"city":"Seattle","state":"WA","country":"UNITED STATES","longitude":"-122.332","latitude":"47.6062","owner":null,"power":null,"frequency":null,"website":null,"story":null,"photo":null,"model1":null,"model2":null,"model3":null,"service":null,"status":null},{"id":"4774","company":"SOUND ENGINEERING","address":null,"city":"Seattle","state":"WA","country":"UNITED STATES","longitude":"-122.332","latitude":"47.6062","owner":null,"power":null,"frequency":null,"website":null,"story":null,"photo":null,"model1":null,"model2":null,"model3":null,"service":null,"status":null},{"id":"5324","company":"SANDUSKY BROADCASTING","address":null,"city":"Seattle","state":"WA","country":"USA","longitude":"-122.332","latitude":"47.6062","owner":null,"power":null,"frequency":null,"website":null,"story":null,"photo":null,"model1":null,"model2":null,"model3":null,"service":null,"status":null},{"id":"4697","company":"KCSM","address":null,"city":"San Mateo","state":"CA","country":"UNITED STATES","longitude":"-122.326","latitude":"37.563","owner":"SAN MATEO COUNTY COMMUNITY COLLEGE DISTRICT","power":"11","frequency":"91.1","website":null,"story":null,"photo":null,"model1":null,"model2":null,"model3":null,"service":"FM","status":null},{"id":"4102","company":"KXCL","address":null,"city":"Napa","state":"CA","country":"UNITED STATES","longitude":"-122.299","latitude":"38.3047","owner":"UNITED STATES CP, LLC","power":"0.18","frequency":"101.7","website":null,"story":null,"photo":null,"model1":null,"model2":null,"model3":null,"service":"FM","status":null},{"id":"357","company":"Seventh Day Adventist Church","address":null,"city":"Abbotsford","state":"BC","country":"CANADA","longitude":"-122.285","latitude":"49.0568","owner":null,"power":null,"frequency":null,"website":null,"story":null,"photo":null,"model1":null,"model2":null,"model3":null,"service":null,"status":null},{"id":"2666","company":"KPFA","address":null,"city":"Berkeley","state":"CA","country":"UNITED STATES","longitude":"-122.273","latitude":"37.8716","owner":"PACIFICA FOUNDATION, INC.","power":"59","frequency":"94.1","website":null,"story":null,"photo":null,"model1":null,"model2":null,"model3":null,"service":"FM","status":null},{"id":"4243","company":"FAMILY STATIONS INC","address":null,"city":"Oakland","state":"CA","country":"UNITED STATES","longitude":"-122.271","latitude":"37.8044","owner":null,"power":null,"frequency":null,"website":null,"story":null,"photo":null,"model1":null,"model2":null,"model3":null,"service":null,"status":null},{"id":"4244","company":"KFRC","address":null,"city":"Oakland","state":"CA","country":"UNITED STATES","longitude":"-122.271","latitude":"37.8044","owner":"CBS RADIO EAST INC.","power":"10","frequency":"1550","website":null,"story":null,"photo":null,"model1":null,"model2":null,"model3":null,"service":"AM","status":null},{"id":"4245","company":"RANGE SYS","address":null,"city":"Oakland","state":"CA","country":"UNITED STATES","longitude":"-122.271","latitude":"37.8044","owner":null,"power":null,"frequency":null,"website":null,"story":null,"photo":null,"model1":null,"model2":null,"model3":null,"service":null,"status":null},{"id":"4471","company":"KBLF","address":null,"city":"Red Bluff","state":"CA","country":"UNITED STATES","longitude":"-122.236","latitude":"40.1785","owner":"TOM F. HUTH","power":"1","frequency":"1490","website":null,"story":null,"photo":null,"model1":null,"model2":null,"model3":null,"service":"AM","status":null},{"id":"2559","company":"KNWP","address":null,"city":"Aubur","state":"WA","country":"UNITED STATES","longitude":"-122.228","latitude":"47.3073","owner":"WASHINGTON STATE UNIVERSITY","power":"1.6","frequency":"90.1","website":null,"story":null,"photo":null,"model1":null,"model2":null,"model3":null,"service":"FM","status":null},{"id":"2561","company":"KSWS","address":null,"city":"Auburn","state":"WA","country":"UNITED STATES","longitude":"-122.228","latitude":"47.3073","owner":"WASHINGTON STATE UNIVERSITY","power":"1","frequency":"88.9","website":null,"story":null,"photo":null,"model1":null,"model2":null,"model3":null,"service":"FM","status":null},{"id":"3634","company":"KARR","address":null,"city":"Kirkland","state":"WA","country":"UNITED STATES","longitude":"-122.209","latitude":"47.6815","owner":"FAMILY STATIONS, INC.","power":"5","frequency":"1460","website":null,"story":null,"photo":null,"model1":null,"model2":null,"model3":null,"service":"AM","status":null},{"id":"3196","company":"KRKO","address":null,"city":"Everett","state":"WA","country":"UNITED STATES","longitude":"-122.202","latitude":"47.979","owner":"S-R BROADCASTING,  CO.","power":"5","frequency":"1380","website":null,"story":null,"photo":null,"model1":null,"model2":null,"model3":null,"service":"AM","status":null},{"id":"3197","company":"KSER","address":null,"city":"Everett","state":"WA","country":"UNITED STATES","longitude":"-122.202","latitude":"47.979","owner":"KSER FOUNDATION","power":"5.8","frequency":"90.7","website":null,"story":null,"photo":null,"model1":null,"model2":null,"model3":null,"service":"FM","status":null},{"id":"2656","company":"KBCS-FM","address":null,"city":"Bellevue","state":"WA","country":"UNITED STATES","longitude":"-122.201","latitude":"47.6104","owner":null,"power":null,"frequency":null,"website":null,"story":null,"photo":null,"model1":null,"model2":null,"model3":null,"service":null,"status":null},{"id":"2657","company":"KIXI","address":null,"city":"Bellevue","state":"WA","country":"UNITED STATES","longitude":"-122.201","latitude":"47.6104","owner":"BELLEVUE RADIO, INC.","power":"50","frequency":"880","website":null,"story":null,"photo":null,"model1":null,"model2":null,"model3":null,"service":"AM","status":null},{"id":"2658","company":"KKNW-AM","address":null,"city":"Bellevue","state":"WA","country":"UNITED STATES","longitude":"-122.201","latitude":"47.6104","owner":null,"power":null,"frequency":null,"website":null,"story":null,"photo":null,"model1":null,"model2":null,"model3":null,"service":null,"status":null},{"id":"2659","company":"KLSY","address":null,"city":"Bellevue","state":"WA","country":"UNITED STATES","longitude":"-122.201","latitude":"47.6104","owner":"JODESHA BROADCASTING, INC.","power":"0.79","frequency":"107.9","website":null,"story":null,"photo":null,"model1":null,"model2":null,"model3":null,"service":"FM","status":null},{"id":"4477","company":"Sage-Communications, Inc.","address":null,"city":"Redmond","state":"OR","country":"UNITED STATES","longitude":"-122.122","latitude":"47.674","owner":null,"power":null,"frequency":null,"website":null,"story":null,"photo":null,"model1":null,"model2":null,"model3":null,"service":null,"status":null},{"id":"3660","company":"MEEC","address":null,"city":"Lafayette","state":"CA","country":"UNITED STATES","longitude":"-122.118","latitude":"37.8858","owner":null,"power":null,"frequency":null,"website":null,"story":null,"photo":null,"model1":null,"model2":null,"model3":null,"service":null,"status":null},{"id":"3805","company":"E-RADIO USA, INC.","address":null,"city":"Los Altos","state":"CA","country":"UNITED STATES","longitude":"-122.114","latitude":"37.3852","owner":null,"power":null,"frequency":null,"website":null,"story":null,"photo":null,"model1":null,"model2":null,"model3":null,"service":null,"status":null},{"id":"2998","company":"KMCQ","address":null,"city":"Covington","state":"WA","country":"UNITED STATES","longitude":"-122.1","latitude":"47.3658","owner":"FIRST BROADCASTING CAPITAL PARTNERS, LLC","power":"7.1","frequency":"104.5","website":null,"story":null,"photo":null,"model1":null,"model2":null,"model3":null,"service":"FM","status":null},{"id":"4918","company":"TCI","address":null,"city":"Sunnyvale","state":"CA","country":"UNITED STATES","longitude":"-122.036","latitude":"37.3688","owner":null,"power":null,"frequency":null,"website":null,"story":null,"photo":null,"model1":null,"model2":null,"model3":null,"service":null,"status":null},{"id":"4710","company":"KSCO","address":null,"city":"Santa Cruz","state":"CA","country":"UNITED STATES","longitude":"-122.031","latitude":"36.9741","owner":"ZWERLING BROADCASTING SYSTEM, LTD","power":"10","frequency":"1080","website":null,"story":null,"photo":null,"model1":null,"model2":null,"model3":null,"service":"AM","status":null},{"id":"4711","company":"KUSP-FM","address":null,"city":"Santa Cruz","state":"CA","country":"UNITED STATES","longitude":"-122.031","latitude":"36.9741","owner":null,"power":null,"frequency":null,"website":null,"story":null,"photo":null,"model1":null,"model2":null,"model3":null,"service":null,"status":null},{"id":"4712","company":"KZSC","address":null,"city":"Santa Cruz","state":"CA","country":"UNITED STATES","longitude":"-122.031","latitude":"36.9741","owner":"THE REGENTS OF THE UNIVERSITY OF CALIFORNIA","power":"20","frequency":"88.1","website":null,"story":null,"photo":null,"model1":null,"model2":null,"model3":null,"service":"FM","status":null},{"id":"4713","company":"PATAPHYSICAL BROADCASTING FOUN","address":null,"city":"Santa Cruz","state":"CA","country":"UNITED STATES","longitude":"-122.031","latitude":"36.9741","owner":null,"power":null,"frequency":null,"website":null,"story":null,"photo":null,"model1":null,"model2":null,"model3":null,"service":null,"status":null},{"id":"4714","company":"UNIVERSITY OF CALIFORNIA","address":null,"city":"Santa Cruz","state":"CA","country":"UNITED STATES","longitude":"-122.031","latitude":"36.9741","owner":null,"power":null,"frequency":null,"website":null,"story":null,"photo":null,"model1":null,"model2":null,"model3":null,"service":null,"status":null},{"id":"3285","company":"AM HI-TECH LAB, INC.","address":null,"city":"Fremont","state":"CA","country":"UNITED STATES","longitude":"-121.989","latitude":"37.5483","owner":null,"power":null,"frequency":null,"website":null,"story":null,"photo":null,"model1":null,"model2":null,"model3":null,"service":null,"status":null},{"id":"3286","company":"KDOW","address":null,"city":"Fremont","state":"CA","country":"UNITED STATES","longitude":"-121.989","latitude":"37.5483","owner":"SCA-PALO ALTO, LLC","power":"5","frequency":"1220","website":null,"story":null,"photo":null,"model1":null,"model2":null,"model3":null,"service":"AM","status":null},{"id":"4685","company":"KCNL","address":null,"city":"San Jose","state":"CA","country":"UNITED STATES","longitude":"-121.895","latitude":"37.3394","owner":"PRINCIPLE BROADCASTING NETWORK SAN JOSE, LLC","power":"6","frequency":"104.9","website":null,"story":null,"photo":null,"model1":null,"model2":null,"model3":null,"service":"FM","status":null},{"id":"4686","company":"KLOK","address":null,"city":"San Jose","state":"CA","country":"UNITED STATES","longitude":"-121.895","latitude":"37.3394","owner":"PRINCIPLE BAY AREA HOLDING CO., LLC","power":"50","frequency":"1170","website":null,"story":null,"photo":null,"model1":null,"model2":null,"model3":null,"service":"AM","status":null},{"id":"4687","company":"KSJX","address":null,"city":"San Jose","state":"CA","country":"UNITED STATES","longitude":"-121.895","latitude":"37.3394","owner":"MULTICULTURAL RADIO BROADCASTING LICENSEE, LLC","power":"10","frequency":"1500","website":null,"story":null,"photo":null,"model1":null,"model2":null,"model3":null,"service":"AM","status":null},{"id":"4688","company":"KSQQ","address":null,"city":"San Jose","state":"CA","country":"UNITED STATES","longitude":"-121.895","latitude":"37.3394","owner":"COYOTE COMMUNICATIONS, INC.","power":"4.7","frequency":"96.1","website":null,"story":null,"photo":null,"model1":null,"model2":null,"model3":null,"service":"FM","status":null},{"id":"4689","company":"KVVN","address":null,"city":"San Jose","state":"CA","country":"UNITED STATES","longitude":"-121.895","latitude":"37.3394","owner":"URBAN RADIO III, L.L.C.","power":"2.5","frequency":"1430","website":null,"story":null,"photo":null,"model1":null,"model2":null,"model3":null,"service":"AM","status":null},{"id":"4690","company":"KZSF","address":null,"city":"San Jose","state":"CA","country":"UNITED STATES","longitude":"-121.895","latitude":"37.3394","owner":"CARLOS A. DUHARTE","power":"5","frequency":"1370","website":null,"story":null,"photo":null,"model1":null,"model2":null,"model3":null,"service":"AM","status":null},{"id":"4055","company":"KMBX","address":null,"city":"Monterey","state":"CA","country":"UNITED STATES","longitude":"-121.895","latitude":"36.6002","owner":"ENTRAVISION HOLDINGS, LLC","power":"2.5","frequency":"700","website":null,"story":null,"photo":null,"model1":null,"model2":null,"model3":null,"service":"AM","status":null},{"id":"4056","company":"Triad Broadcasting","address":null,"city":"Monterey","state":"CA","country":"UNITED STATES","longitude":"-121.895","latitude":"36.6002","owner":null,"power":null,"frequency":null,"website":null,"story":null,"photo":null,"model1":null,"model2":null,"model3":null,"service":null,"status":null},{"id":"4057","company":"KBOQ","address":null,"city":"Monterrey","state":"CA","country":"UNITED STATES","longitude":"-121.895","latitude":"36.6002","owner":"MAPLETON LICENSE OF MONTEREY, LLC","power":"1.5","frequency":"103.9","website":null,"story":null,"photo":null,"model1":null,"model2":null,"model3":null,"service":"FM","status":null},{"id":"4700","company":"KRXA","address":null,"city":"Sand City","state":"CA","country":"UNITED STATES","longitude":"-121.848","latitude":"36.6172","owner":"KRXA, LLC","power":"10","frequency":"540","website":null,"story":null,"photo":null,"model1":null,"model2":null,"model3":null,"service":"AM","status":null},{"id":"2902","company":"KPAY","address":null,"city":"Chico","state":"CA","country":"UNITED STATES","longitude":"-121.837","latitude":"39.7285","owner":"DEER CREEK BROADCASTING, LLC","power":"5","frequency":"1290","website":null,"story":null,"photo":null,"model1":null,"model2":null,"model3":null,"service":"AM","status":null},{"id":"2903","company":"KTHU","address":null,"city":"Chico","state":"CA","country":"UNITED STATES","longitude":"-121.837","latitude":"39.7285","owner":"RESULTS RADIO OF CHICO LICENSEE, LLC","power":"50","frequency":"100.7","website":null,"story":null,"photo":null,"model1":null,"model2":null,"model3":null,"service":"FM","status":null},{"id":"2904","company":"Sierra Radio Inc","address":null,"city":"Chico","state":"CA","country":"UNITED STATES","longitude":"-121.837","latitude":"39.7285","owner":null,"power":null,"frequency":null,"website":null,"story":null,"photo":null,"model1":null,"model2":null,"model3":null,"service":null,"status":null},{"id":"4753","company":"KAZU","address":null,"city":"Seaside","state":"CA","country":"UNITED STATES","longitude":"-121.819","latitude":"36.6214","owner":"UNIVERSITY CORPORATION AT MONTEREY BAY","power":"3.4","frequency":"90.3","website":null,"story":null,"photo":null,"model1":null,"model2":null,"model3":null,"service":"FM","status":null},{"id":"4754","company":"KNRY","address":null,"city":"Seaside","state":"CA","country":"UNITED STATES","longitude":"-121.819","latitude":"36.6214","owner":"PEOPLE'S RADIO, INC.","power":"1","frequency":"1240","website":null,"story":null,"photo":null,"model1":null,"model2":null,"model3":null,"service":"AM","status":null},{"id":"3636","company":"KAGO","address":null,"city":"Klamath Falls","state":"OR","country":"UNITED STATES","longitude":"-121.782","latitude":"42.2249","owner":"REVITALIZATION PARTNERS, LLC, GENERAL RECEIVER","power":"5","frequency":"1150","website":null,"story":null,"photo":null,"model1":null,"model2":null,"model3":null,"service":"AM","status":null},{"id":"3637","company":"KLAD","address":null,"city":"Klamath Falls","state":"OR","country":"UNITED STATES","longitude":"-121.782","latitude":"42.2249","owner":"REVITALIZATION PARTNERS, LLC, GENERAL RECEIVER","power":"5","frequency":"960","website":null,"story":null,"photo":null,"model1":null,"model2":null,"model3":null,"service":"AM","status":null},{"id":"3638","company":"NEW NORTHWEST BROADCASTERS","address":null,"city":"Klamath Falls","state":"OR","country":"UNITED STATES","longitude":"-121.782","latitude":"42.2249","owner":null,"power":null,"frequency":null,"website":null,"story":null,"photo":null,"model1":null,"model2":null,"model3":null,"service":null,"status":null},{"id":"5100","company":"KOMY","address":null,"city":"Watsonville","state":"CA","country":"UNITED STATES","longitude":"-121.757","latitude":"36.9102","owner":"ZWERLING BROADCASTING SYSTEM, LTD","power":"1","frequency":"1340","website":null,"story":null,"photo":null,"model1":null,"model2":null,"model3":null,"service":"AM","status":null},{"id":"3357","company":"KPFR","address":null,"city":"Government Camp","state":"OR","country":"UNITED STATES","longitude":"-121.755","latitude":"45.304","owner":"FAMILY STATIONS, INC.","power":"7","frequency":"89.5","website":null,"story":null,"photo":null,"model1":null,"model2":null,"model3":null,"service":"FM","status":null},{"id":"2762","company":"KNCA","address":null,"city":"Burney","state":"CA","country":"UNITED STATES","longitude":"-121.661","latitude":"40.8824","owner":"OREGON STATE BOARD OF HIGHER EDUCATION FOR THE U . OF OREGON","power":"2.3","frequency":"89.7","website":null,"story":null,"photo":null,"model1":null,"model2":null,"model3":null,"service":"FM","status":null},{"id":"4601","company":"KOCN","address":null,"city":"Salinas","state":"CA","country":"UNITED STATES","longitude":"-121.656","latitude":"36.6777","owner":"CC LICENSES, LLC","power":"1.8","frequency":"105.1","website":null,"story":null,"photo":null,"model1":null,"model2":null,"model3":null,"service":"FM","status":null},{"id":"4602","company":"KOQI","address":null,"city":"Salinas","state":"CA","country":"UNITED STATES","longitude":"-121.656","latitude":"36.6777","owner":null,"power":null,"frequency":null,"website":null,"story":null,"photo":null,"model1":null,"model2":null,"model3":null,"service":null,"status":null},{"id":"4603","company":"KPRC","address":null,"city":"Salinas","state":"CA","country":"UNITED STATES","longitude":"-121.656","latitude":"36.6777","owner":"CC LICENSES, LLC","power":"5","frequency":"950","website":null,"story":null,"photo":null,"model1":null,"model2":null,"model3":null,"service":"AM","status":null},{"id":"4604","company":"KTGE","address":null,"city":"Salinas","state":"CA","country":"UNITED STATES","longitude":"-121.656","latitude":"36.6777","owner":"WOLFHOUSE RADIO GROUP, INC.","power":"5","frequency":"1570","website":null,"story":null,"photo":null,"model1":null,"model2":null,"model3":null,"service":"AM","status":null},{"id":"4605","company":"PEOPLE'S RADIO, INC.","address":null,"city":"Salinas","state":"CA","country":"UNITED STATES","longitude":"-121.656","latitude":"36.6777","owner":null,"power":null,"frequency":null,"website":null,"story":null,"photo":null,"model1":null,"model2":null,"model3":null,"service":null,"status":null},{"id":"4606","company":"WOLFHOUSE RADIO GROUP","address":null,"city":"Salinas","state":"CA","country":"UNITED STATES","longitude":"-121.656","latitude":"36.6777","owner":null,"power":null,"frequency":null,"website":null,"story":null,"photo":null,"model1":null,"model2":null,"model3":null,"service":null,"status":null},{"id":"4066","company":"BROADCASTING ENGINEERING ASSOC","address":null,"city":"Morgan Hill","state":"CA","country":"UNITED STATES","longitude":"-121.654","latitude":"37.1305","owner":null,"power":null,"frequency":null,"website":null,"story":null,"photo":null,"model1":null,"model2":null,"model3":null,"service":null,"status":null},{"id":"3899","company":"KMYC","address":null,"city":"Marysville","state":"CA","country":"UNITED STATES","longitude":"-121.591","latitude":"39.1457","owner":"TOM F. HUTH","power":"5","frequency":"1410","website":null,"story":null,"photo":null,"model1":null,"model2":null,"model3":null,"service":"AM","status":null},{"id":"4280","company":"KEWE","address":null,"city":"Oroville","state":"CA","country":"UNITED STATES","longitude":"-121.556","latitude":"39.5138","owner":"DEER CREEK BROADCASTING, LLC","power":"1","frequency":"1340","website":null,"story":null,"photo":null,"model1":null,"model2":null,"model3":null,"service":"AM","status":null},{"id":"4572","company":"Capital Public Radio","address":null,"city":"Sacramento","state":"CA","country":"UNITED STATES","longitude":"-121.494","latitude":"38.5816","owner":null,"power":null,"frequency":null,"website":null,"story":null,"photo":null,"model1":null,"model2":null,"model3":null,"service":null,"status":null},{"id":"4573","company":"KFBK","address":null,"city":"Sacramento","state":"CA","country":"UNITED STATES","longitude":"-121.494","latitude":"38.5816","owner":"AMFM BROADCASTING LICENSES, LLC","power":"50","frequency":"1530","website":null,"story":null,"photo":null,"model1":null,"model2":null,"model3":null,"service":"AM","status":null},{"id":"4574","company":"KFRP","address":null,"city":"Sacramento","state":"CA","country":"UNITED STATES","longitude":"-121.494","latitude":"38.5816","owner":"FAMILY STATIONS, INC.","power":"2.5","frequency":"90.7","website":null,"story":null,"photo":null,"model1":null,"model2":null,"model3":null,"service":"FM","status":null},{"id":"4575","company":"KHLX","address":null,"city":"Sacramento","state":"CA","country":"UNITED STATES","longitude":"-121.494","latitude":"38.5816","owner":"CC LICENSES, LLC","power":"20.5","frequency":"93.1","website":null,"story":null,"photo":null,"model1":null,"model2":null,"model3":null,"service":"FM","status":null},{"id":"4576","company":"KHTK-AM","address":null,"city":"Sacramento","state":"CA","country":"UNITED STATES","longitude":"-121.494","latitude":"38.5816","owner":null,"power":null,"frequency":null,"website":null,"story":null,"photo":null,"model1":null,"model2":null,"model3":null,"service":null,"status":null},{"id":"4577","company":"KHYL","address":null,"city":"Sacramento","state":"CA","country":"UNITED STATES","longitude":"-121.494","latitude":"38.5816","owner":"AMFM BROADCASTING LICENSES, LLC","power":"36","frequency":"101.1","website":null,"story":null,"photo":null,"model1":null,"model2":null,"model3":null,"service":"FM","status":null},{"id":"4578","company":"KNCI","address":null,"city":"Sacramento","state":"CA","country":"UNITED STATES","longitude":"-121.494","latitude":"38.5816","owner":"CBS RADIO HOLDINGS INC.","power":"50","frequency":"105.1","website":null,"story":null,"photo":null,"model1":null,"model2":null,"model3":null,"service":"FM","status":null},{"id":"4579","company":"KRXQ-FM","address":null,"city":"Sacramento","state":"CA","country":"UNITED STATES","longitude":"-121.494","latitude":"38.5816","owner":null,"power":null,"frequency":null,"website":null,"story":null,"photo":null,"model1":null,"model2":null,"model3":null,"service":null,"status":null},{"id":"4580","company":"KSTE","address":null,"city":"Sacramento","state":"CA","country":"UNITED STATES","longitude":"-121.494","latitude":"38.5816","owner":"AMFM BROADCASTING LICENSES, LLC","power":"21.4","frequency":"650","website":null,"story":null,"photo":null,"model1":null,"model2":null,"model3":null,"service":"AM","status":null},{"id":"4581","company":"Royce International Broadcasting Company","address":null,"city":"Sacramento","state":"CA","country":"UNITED STATES","longitude":"-121.494","latitude":"38.5816","owner":null,"power":null,"frequency":null,"website":null,"story":null,"photo":null,"model1":null,"model2":null,"model3":null,"service":null,"status":null},{"id":"4582","company":"WHZ-1","address":null,"city":"Sacramento","state":"CA","country":"UNITED STATES","longitude":"-121.494","latitude":"38.5816","owner":null,"power":null,"frequency":null,"website":null,"story":null,"photo":null,"model1":null,"model2":null,"model3":null,"service":null,"status":null},{"id":"3913","company":"TELEVISION-AUDIO SUPPORT ACTIV","address":null,"city":"Mcclellan","state":"CA","country":"UNITED STATES","longitude":"-121.401","latitude":"38.6678","owner":null,"power":null,"frequency":null,"website":null,"story":null,"photo":null,"model1":null,"model2":null,"model3":null,"service":null,"status":null},{"id":"2661","company":"KNLR-FM","address":null,"city":"Bend","state":"OR","country":"UNITED STATES","longitude":"-121.315","latitude":"44.0582","owner":null,"power":null,"frequency":null,"website":null,"story":null,"photo":null,"model1":null,"model2":null,"model3":null,"service":null,"status":null},{"id":"2662","company":"KNLX","address":null,"city":"Bend","state":"OR","country":"UNITED STATES","longitude":"-121.315","latitude":"44.0582","owner":null,"power":null,"frequency":null,"website":null,"story":null,"photo":null,"model1":null,"model2":null,"model3":null,"service":null,"status":null},{"id":"2663","company":"Oregon Public Broadcasting","address":null,"city":"Bend","state":"OR","country":"UNITED STATES","longitude":"-121.315","latitude":"44.0582","owner":null,"power":null,"frequency":null,"website":null,"story":null,"photo":null,"model1":null,"model2":null,"model3":null,"service":null,"status":null},{"id":"4913","company":"KCVR","address":null,"city":"Stockton","state":"CA","country":"UNITED STATES","longitude":"-121.291","latitude":"37.9577","owner":"ENTRAVISION HOLDINGS, LLC","power":"5","frequency":"1570","website":null,"story":null,"photo":null,"model1":null,"model2":null,"model3":null,"service":"AM","status":null},{"id":"4562","company":"KIID","address":null,"city":"Roseville","state":"CA","country":"UNITED STATES","longitude":"-121.288","latitude":"38.7521","owner":"RADIO DISNEY SACRAMENTO, LLC","power":"5","frequency":"1470","website":null,"story":null,"photo":null,"model1":null,"model2":null,"model3":null,"service":"AM","status":null},{"id":"759","company":"Bustos Media Holdings Inc.","address":null,"city":"Sacramento","state":"CA","country":"CANADA","longitude":"-121.27","latitude":"38.6375","owner":null,"power":null,"frequency":null,"website":null,"story":null,"photo":null,"model1":null,"model2":null,"model3":null,"service":null,"status":null},{"id":"4542","company":"EMF BROADCASTING","address":null,"city":"Rocklin","state":"CA","country":"UNITED STATES","longitude":"-121.236","latitude":"38.7907","owner":null,"power":null,"frequency":null,"website":null,"story":null,"photo":null,"model1":null,"model2":null,"model3":null,"service":null,"status":null},{"id":"4543","company":"Imaculate Heart Radio","address":null,"city":"Rocklin","state":"CA","country":"UNITED STATES","longitude":"-121.236","latitude":"38.7907","owner":null,"power":null,"frequency":null,"website":null,"story":null,"photo":null,"model1":null,"model2":null,"model3":null,"service":null,"status":null},{"id":"4544","company":"KAJK","address":null,"city":"Rocklin","state":"CA","country":"UNITED STATES","longitude":"-121.236","latitude":"38.7907","owner":"SIERRA RADIO, INC.","power":"1.5","frequency":"96.3","website":null,"story":null,"photo":null,"model1":null,"model2":null,"model3":null,"service":"FM","status":null},{"id":"4545","company":"KIQS","address":null,"city":"Rocklin","state":"CA","country":"UNITED STATES","longitude":"-121.236","latitude":"38.7907","owner":"RADIO PAN DE VIDA, LLC","power":"0.25","frequency":"1560","website":null,"story":null,"photo":null,"model1":null,"model2":null,"model3":null,"service":"AM","status":null},{"id":"4546","company":"KJKL","address":null,"city":"Rocklin","state":"CA","country":"UNITED STATES","longitude":"-121.236","latitude":"38.7907","owner":"EDUCATIONAL MEDIA FOUNDATION","power":"30","frequency":"88.7","website":null,"story":null,"photo":null,"model1":null,"model2":null,"model3":null,"service":"FM","status":null},{"id":"4547","company":"KKLC","address":null,"city":"Rocklin","state":"CA","country":"UNITED STATES","longitude":"-121.236","latitude":"38.7907","owner":"EDUCATIONAL MEDIA FOUNDATION","power":"13","frequency":"107.9","website":null,"story":null,"photo":null,"model1":null,"model2":null,"model3":null,"service":"FM","status":null},{"id":"4548","company":"KLVN","address":null,"city":"Rocklin","state":"CA","country":"UNITED STATES","longitude":"-121.236","latitude":"38.7907","owner":"EDUCATIONAL MEDIA FOUNDATION","power":"6.1","frequency":"88.3","website":null,"story":null,"photo":null,"model1":null,"model2":null,"model3":null,"service":"FM","status":null},{"id":"4549","company":"KLVS","address":null,"city":"Rocklin","state":"CA","country":"UNITED STATES","longitude":"-121.236","latitude":"38.7907","owner":"SAN JOAQUIN BROADCASTING CO., NON-PROFIT CORPORATION","power":"8.1","frequency":"107.3","website":null,"story":null,"photo":null,"model1":null,"model2":null,"model3":null,"service":"FM","status":null},{"id":"4550","company":"KNKL","address":null,"city":"Rocklin","state":"CA","country":"UNITED STATES","longitude":"-121.236","latitude":"38.7907","owner":"EDUCATIONAL MEDIA FOUNDATION","power":"73","frequency":"88.7","website":null,"story":null,"photo":null,"model1":null,"model2":null,"model3":null,"service":"FM","status":null},{"id":"4551","company":"KSFB","address":null,"city":"Rocklin","state":"CA","country":"UNITED STATES","longitude":"-121.236","latitude":"38.7907","owner":"IHR EDUCATIONAL BROADCASTING","power":"5","frequency":"1260","website":null,"story":null,"photo":null,"model1":null,"model2":null,"model3":null,"service":"AM","status":null},{"id":"4552","company":"WJKL","address":null,"city":"Rocklin","state":"CA","country":"UNITED STATES","longitude":"-121.236","latitude":"38.7907","owner":"EDUCATIONAL MEDIA FOUNDATION","power":"3.5","frequency":"94.3","website":null,"story":null,"photo":null,"model1":null,"model2":null,"model3":null,"service":"FM","status":null},